customer_id,customer_city,customer_state,order_id,order_purchase_timestamp,order_item_id,product_id,price,review_id,review_score,customer_lat,customer_long,product_category_name,quantidade_item
06b8999e2fba1a1fbc88172c00ba8bc7,franca,SP,00e7ee1b050b8499577073aeb2a297a1,2017-05-16 15:05:35,1,a9516a079e37a9c9c36b9b78b10169e8,124.99,88b8b52d46df026a9d1ad2136a59b30b,4,-20.500252601080785,-47.40036721880004,moveis_escritorio,1
8912fc0c3bbf1e2fbf35819e21706718,santarem,PA,c1d2b34febe9cd269e378117d6681172,2017-11-09 00:50:13,1,a9516a079e37a9c9c36b9b78b10169e8,112.99,7fc63200f12eebb5f387856afdd63db8,1,-2.4415346537964644,-54.720800816504536,moveis_escritorio,2
8912fc0c3bbf1e2fbf35819e21706718,santarem,PA,c1d2b34febe9cd269e378117d6681172,2017-11-09 00:50:13,2,a9516a079e37a9c9c36b9b78b10169e8,112.99,7fc63200f12eebb5f387856afdd63db8,1,-2.4415346537964644,-54.720800816504536,moveis_escritorio,2
f0ac8e5a239118859b1734e1087cbb1f,nova santa rita,RS,b1a5d5365d330d10485e0203d54ab9e8,2017-05-07 20:11:26,1,a9516a079e37a9c9c36b9b78b10169e8,124.99,251191809e37c1cffc16865947c18a4d,3,-29.8796749182837,-51.272092866186455,moveis_escritorio,1
6bc8d08963a135220ed6c6d098831f84,mage,RJ,2e604b3614664aa66867856dba7e61b7,2018-02-03 19:45:40,1,a9516a079e37a9c9c36b9b78b10169e8,106.99,f7123bac5b91a0e2e38d8b41fd1206f4,4,-22.610299290892424,-43.17684982695109,moveis_escritorio,1
fd3a0b1bd209f0e7d420c9c3d1127613,angelina,SC,574fe1739f65af76badd0999db300b4f,2017-03-23 15:10:17,1,a9516a079e37a9c9c36b9b78b10169e8,126.99,1496c2a9c41a846ba946a98a09879660,4,-27.58311561264824,-48.98403959584747,moveis_escritorio,1
fbd40c083aa8cddebb5265b2ba6aaf2e,contagem,MG,e0b26f14d2bcc710bb02f77a4628763b,2017-05-16 10:00:49,1,a9516a079e37a9c9c36b9b78b10169e8,124.99,23c661ff382c3a54fc8f98a0b627301f,4,-19.92915430347739,-44.04750910076872,moveis_escritorio,1
10558ef4afea173bfb5e2cbe3d5b0bb5,varzea grande,MT,eaae5bd20fb15d85aa673d9b7c0e8ca5,2017-03-18 23:04:36,1,a9516a079e37a9c9c36b9b78b10169e8,126.99,3af0c84579dd7573c098da99a26dd1d7,2,-15.662816583156864,-56.12779216573518,moveis_escritorio,1
1c37c0f0cd1d88d46d9fc9494762abbd,belo horizonte,MG,c4e2bd2043fbd75b325a47adfabf0d77,2018-03-15 07:45:10,1,a9516a079e37a9c9c36b9b78b10169e8,116.99,a82bdb93d19f3fd2dfc9c27140488965,3,-19.855375113797656,-43.953583547319546,moveis_escritorio,1
20a452f528d487411fd7d3ebda1d0f20,santa rita do sapucai,MG,1c7fe02ac4c7be50c59afb295cf85b89,2018-01-26 13:22:09,1,a9516a079e37a9c9c36b9b78b10169e8,106.99,42b3cd1634f9613559f38187611136d3,2,-22.239336714712184,-45.70833577473482,moveis_escritorio,2
20a452f528d487411fd7d3ebda1d0f20,santa rita do sapucai,MG,1c7fe02ac4c7be50c59afb295cf85b89,2018-01-26 13:22:09,2,a9516a079e37a9c9c36b9b78b10169e8,106.99,42b3cd1634f9613559f38187611136d3,2,-22.239336714712184,-45.70833577473482,moveis_escritorio,2
62f766c82849282806bf2f62ca86432e,gaspar,SC,5ee63c8c9ae2e5c38791b35932cf4c69,2017-05-09 11:30:18,1,a9516a079e37a9c9c36b9b78b10169e8,124.99,724322b93173007d3f35d71a923007c5,4,-26.710235898547694,-48.91064344934106,moveis_escritorio,6
62f766c82849282806bf2f62ca86432e,gaspar,SC,5ee63c8c9ae2e5c38791b35932cf4c69,2017-05-09 11:30:18,2,a9516a079e37a9c9c36b9b78b10169e8,124.99,724322b93173007d3f35d71a923007c5,4,-26.710235898547694,-48.91064344934106,moveis_escritorio,6
62f766c82849282806bf2f62ca86432e,gaspar,SC,5ee63c8c9ae2e5c38791b35932cf4c69,2017-05-09 11:30:18,3,a9516a079e37a9c9c36b9b78b10169e8,124.99,724322b93173007d3f35d71a923007c5,4,-26.710235898547694,-48.91064344934106,moveis_escritorio,6
62f766c82849282806bf2f62ca86432e,gaspar,SC,5ee63c8c9ae2e5c38791b35932cf4c69,2017-05-09 11:30:18,4,a9516a079e37a9c9c36b9b78b10169e8,124.99,724322b93173007d3f35d71a923007c5,4,-26.710235898547694,-48.91064344934106,moveis_escritorio,6
62f766c82849282806bf2f62ca86432e,gaspar,SC,5ee63c8c9ae2e5c38791b35932cf4c69,2017-05-09 11:30:18,5,a9516a079e37a9c9c36b9b78b10169e8,124.99,724322b93173007d3f35d71a923007c5,4,-26.710235898547694,-48.91064344934106,moveis_escritorio,6
62f766c82849282806bf2f62ca86432e,gaspar,SC,5ee63c8c9ae2e5c38791b35932cf4c69,2017-05-09 11:30:18,6,a9516a079e37a9c9c36b9b78b10169e8,124.99,724322b93173007d3f35d71a923007c5,4,-26.710235898547694,-48.91064344934106,moveis_escritorio,6
d3286ca43aa21423c6045b2806ca8e56,pelotas,RS,b1cc044d321053348a5e482ca7e6b2e3,2018-01-30 19:29:01,1,a9516a079e37a9c9c36b9b78b10169e8,106.99,4d36f8266245b00faebc520e9cd963c0,2,-31.75653895420967,-52.287300110595005,moveis_escritorio,1
c49bec5f74f0413130abdaed8e7621d0,petropolis,RJ,0d831c5aa932379c1cf5b0b1b40b214b,2017-10-13 10:36:54,1,a9516a079e37a9c9c36b9b78b10169e8,116.99,f342354706529fc668828214c846a82a,3,-22.52854747513797,-43.18136192559032,moveis_escritorio,1
0058ebe2dc136d918dd001968cfa5903,montalvania,MG,27ae3ad0516a9b55f2236e24f690e01b,2017-02-09 16:19:02,1,a9516a079e37a9c9c36b9b78b10169e8,119.99,47e0415219ec587184bc6e4031f204e9,3,-14.425274055353697,-44.36983194435055,moveis_escritorio,2
0058ebe2dc136d918dd001968cfa5903,montalvania,MG,27ae3ad0516a9b55f2236e24f690e01b,2017-02-09 16:19:02,2,a9516a079e37a9c9c36b9b78b10169e8,119.99,47e0415219ec587184bc6e4031f204e9,3,-14.425274055353697,-44.36983194435055,moveis_escritorio,2
f91eb13e253823f25cf9a20fc2d08f56,colider,MT,be2463c66944514bb175f7a519a72cd7,2018-02-07 19:01:48,1,a9516a079e37a9c9c36b9b78b10169e8,116.99,965d81676446af3ab269603dfd760e9e,4,-10.816341309144054,-55.452048462584884,moveis_escritorio,1
8bf4f9552bc2db14d6195bbbb5131941,sao paulo,SP,7ebc5c60f532934ce55b3025203ebe5b,2017-06-24 08:59:47,1,a9516a079e37a9c9c36b9b78b10169e8,124.99,dfe9b87eb34f2b54b85660e934b902a5,2,-23.503503506899786,-46.51035686197501,moveis_escritorio,1
70bc2fe12d0580eb8336285500defe0e,belo horizonte,MG,66573bb355bdba7b6df55fba794b800d,2017-10-15 10:30:57,1,a9516a079e37a9c9c36b9b78b10169e8,112.99,adf785dbac9997f2bcd3beca83ff3fce,5,-20.020844409660093,-44.036467596168286,moveis_escritorio,1
11eee0e62a0b905cf878ff13c8aec4a0,salvador,BA,ff7400d904161b62b6e830b3988f5cbd,2018-03-27 15:37:03,1,a9516a079e37a9c9c36b9b78b10169e8,116.99,e9ccfd7b04e62cf0a6ac4a66b9783886,2,-12.993054541933232,-38.503777597878376,moveis_escritorio,1
cf4dc8d4be7642c7c05a73188a3d8c1c,rio de janeiro,RJ,edc9338008f2e9017f842a8bcad3af94,2017-04-28 16:55:22,1,a9516a079e37a9c9c36b9b78b10169e8,124.99,51269da957ddb113f61d7ca81418e1f5,5,-22.920504274469263,-43.636179832458104,moveis_escritorio,1
d24a0f00aa18133811d0aa666da75ff6,linhares,ES,6ee77fd090a49ec9c4e15bd1a94e100e,2017-03-23 17:44:48,1,a9516a079e37a9c9c36b9b78b10169e8,126.99,cbae6ba27d15a052e147cb526ed6fc34,5,-19.40025125584039,-40.067173311213324,moveis_escritorio,1
d1ec48f722227f712bd7c376e194dcc2,mandaguari,PR,166029aa4dc1bed21f0d50ebdb4ef286,2018-04-02 09:09:45,1,a9516a079e37a9c9c36b9b78b10169e8,116.99,4981537a9c59c338f977f78d5d5d286c,5,-23.534411250216824,-51.67148666106168,moveis_escritorio,5
d1ec48f722227f712bd7c376e194dcc2,mandaguari,PR,166029aa4dc1bed21f0d50ebdb4ef286,2018-04-02 09:09:45,2,a9516a079e37a9c9c36b9b78b10169e8,116.99,4981537a9c59c338f977f78d5d5d286c,5,-23.534411250216824,-51.67148666106168,moveis_escritorio,5
d1ec48f722227f712bd7c376e194dcc2,mandaguari,PR,166029aa4dc1bed21f0d50ebdb4ef286,2018-04-02 09:09:45,3,a9516a079e37a9c9c36b9b78b10169e8,116.99,4981537a9c59c338f977f78d5d5d286c,5,-23.534411250216824,-51.67148666106168,moveis_escritorio,5
d1ec48f722227f712bd7c376e194dcc2,mandaguari,PR,166029aa4dc1bed21f0d50ebdb4ef286,2018-04-02 09:09:45,4,a9516a079e37a9c9c36b9b78b10169e8,116.99,4981537a9c59c338f977f78d5d5d286c,5,-23.534411250216824,-51.67148666106168,moveis_escritorio,5
d1ec48f722227f712bd7c376e194dcc2,mandaguari,PR,166029aa4dc1bed21f0d50ebdb4ef286,2018-04-02 09:09:45,5,a9516a079e37a9c9c36b9b78b10169e8,116.99,4981537a9c59c338f977f78d5d5d286c,5,-23.534411250216824,-51.67148666106168,moveis_escritorio,5
9202f01b2ebd095e340abd57e02b65e6,praia grande,SP,4819cd593b17ce6f5757d395b2597a9d,2017-06-02 11:06:09,1,a9516a079e37a9c9c36b9b78b10169e8,124.99,26b9eacfc049f843e99d3c87eaf380de,4,-24.010577124415192,-46.42006327839866,moveis_escritorio,1
ac318397fb90e64c9a724a3fc61ef587,alfenas,MG,3c75044db750a89606612ed286713eb8,2018-03-13 20:11:20,1,a9516a079e37a9c9c36b9b78b10169e8,116.99,b89b4460c0b589c0614d9b0126ae755a,3,-21.412817923691048,-45.95526191793045,moveis_escritorio,1
15359860c7341b2f6b12259d83c2e697,botucatu,SP,cec04b13070b06e2f7326de94287d60d,2017-04-24 12:16:12,1,a9516a079e37a9c9c36b9b78b10169e8,124.99,021e3fe507d74d579c4fc4f6f7bd05c1,4,-22.86937007937564,-48.444702474609,moveis_escritorio,1
454c1eeaac06aef9e44e33d80b12bdbc,florianopolis,SC,0e42d2ebc62a8ba6900096d9af8565a9,2017-06-25 23:20:52,1,a9516a079e37a9c9c36b9b78b10169e8,124.99,fb49e08efeb5e53a3a8c88755f8246e2,1,-27.553442004781605,-48.50002697340093,moveis_escritorio,1
f1c8bca25ab72158e4721761b51d7256,gouveia,MG,f964282723f7e8deef2e3054f5f790d4,2018-03-23 17:45:48,1,a9516a079e37a9c9c36b9b78b10169e8,116.99,cbfb0d5571c2239ed512a7f3d572e17f,1,-18.4547835,-43.7414805,moveis_escritorio,2
f1c8bca25ab72158e4721761b51d7256,gouveia,MG,f964282723f7e8deef2e3054f5f790d4,2018-03-23 17:45:48,2,0c9452f6a812935c0615faee8bf8646b,179.99,cbfb0d5571c2239ed512a7f3d572e17f,1,-18.4547835,-43.7414805,moveis_escritorio,2
645d4fd3f4546d7c9592576665711186,marilia,SP,6b5c76c2c9615b42e0c2b7efb11b60d7,2018-04-03 21:24:29,1,a9516a079e37a9c9c36b9b78b10169e8,116.99,fbb7c08e8ca00f3412c095449c59d83b,3,-22.24812266833056,-49.91858849125742,moveis_escritorio,1
b9c05cfc28f1dd72313d61b139faab45,campinas,SP,127db093fee728a76262a027b66556aa,2017-05-21 16:31:12,1,a9516a079e37a9c9c36b9b78b10169e8,124.99,b33c9dafa1c7828cde1ff508ca5a3a6b,5,-22.95690350291419,-47.19259412378098,moveis_escritorio,1
97ee81fede5757f1ab031e83d1a59f56,barreiras,BA,a4866dfc455353f48014a2b9a86608a2,2018-01-11 16:47:03,1,a9516a079e37a9c9c36b9b78b10169e8,126.99,e7b977345ddac9a94389b44959e9d929,4,-12.131864540481946,-44.97767911157493,moveis_escritorio,2
97ee81fede5757f1ab031e83d1a59f56,barreiras,BA,a4866dfc455353f48014a2b9a86608a2,2018-01-11 16:47:03,2,a9516a079e37a9c9c36b9b78b10169e8,126.99,e7b977345ddac9a94389b44959e9d929,4,-12.131864540481946,-44.97767911157493,moveis_escritorio,2
44e25679aa4d5d2ef5103f6b0174a586,barueri,SP,03afb3c10af52ddfa3c33b9881bf43f8,2017-12-07 16:41:50,1,a9516a079e37a9c9c36b9b78b10169e8,112.99,e934b832e3bd9951f2a163ea80cfe20d,4,-23.490617505282756,-46.86900366603934,moveis_escritorio,1
90714b0e62fe1fbd304fb45fd644ebdd,sao paulo,SP,64a9f2b487f66506d463ca18152280e8,2018-02-24 08:45:01,1,a9516a079e37a9c9c36b9b78b10169e8,116.99,84d15544e1fd5221b812cda0d23ae242,1,-23.633612589602013,-46.595333249989096,moveis_escritorio,1
ab156e9202420e577b405360a7b29cbc,armacao dos buzios,RJ,54d6f9d8f56229d3da815add65ec2408,2018-03-22 10:58:13,1,a9516a079e37a9c9c36b9b78b10169e8,116.99,ba99c73cdfb4cac0b65aecc0d94787bb,1,-22.76124198297628,-41.89379056950305,moveis_escritorio,2
ab156e9202420e577b405360a7b29cbc,armacao dos buzios,RJ,54d6f9d8f56229d3da815add65ec2408,2018-03-22 10:58:13,2,a9516a079e37a9c9c36b9b78b10169e8,116.99,ba99c73cdfb4cac0b65aecc0d94787bb,1,-22.76124198297628,-41.89379056950305,moveis_escritorio,2
7f449435f005ccdf1808f0bc6e4ded34,porciuncula,RJ,8c21fe1b9ec8e9872ce5c040ee40fd3e,2017-05-08 14:55:05,1,a9516a079e37a9c9c36b9b78b10169e8,124.99,b7a8a6e9ba4000f8059d42e0f2676761,5,-20.96358160681747,-42.044516283630315,moveis_escritorio,1
a2a34d52a5ca3c214067d8d87f6ddf21,poa,SP,0ecd7312b4a222a3a86590e46f1c2b90,2017-07-26 20:50:09,1,a9516a079e37a9c9c36b9b78b10169e8,119.99,f5eb643a65f9bbfaa614a8a03444d70d,4,-23.546919635581972,-46.35215480322003,moveis_escritorio,2
a2a34d52a5ca3c214067d8d87f6ddf21,poa,SP,0ecd7312b4a222a3a86590e46f1c2b90,2017-07-26 20:50:09,2,a9516a079e37a9c9c36b9b78b10169e8,119.99,f5eb643a65f9bbfaa614a8a03444d70d,4,-23.546919635581972,-46.35215480322003,moveis_escritorio,2
95fd46b89a4174004b2407d01069a6d7,sao jose,SC,5df16667b4591b93ff7b1930d8b7da36,2017-06-17 14:44:38,1,a9516a079e37a9c9c36b9b78b10169e8,124.99,90f59eb6eb7d8b124f75ca12854be2f8,1,-27.535895488607093,-48.63093485576336,moveis_escritorio,1
8039f8288f456b82f0c97e6063d003be,corumba,MS,2c909dcd674aa5bc39eb0841b7b8484b,2017-10-02 17:39:25,1,a9516a079e37a9c9c36b9b78b10169e8,119.99,b1570d63d796c81c5fc6c3d09073965e,5,-19.003696067409443,-57.670250673638705,moveis_escritorio,1
12dbbea9f6b7ebe93cc5dfcf0cfe55af,nova iguacu,RJ,24437ca1637e1b4d98a85138eeaae838,2018-01-29 21:04:42,1,a9516a079e37a9c9c36b9b78b10169e8,106.99,3fd7dd2913c6f94f4cc9751211d73b72,4,-22.708880160956017,-43.44554700000001,moveis_escritorio,2
12dbbea9f6b7ebe93cc5dfcf0cfe55af,nova iguacu,RJ,24437ca1637e1b4d98a85138eeaae838,2018-01-29 21:04:42,2,a9516a079e37a9c9c36b9b78b10169e8,106.99,3fd7dd2913c6f94f4cc9751211d73b72,4,-22.708880160956017,-43.44554700000001,moveis_escritorio,2
84716102ab4d906f65136c89fca3f0c3,santos,SP,e48f28e15158bd10b02972eae44c8e7e,2017-05-09 12:33:38,1,a9516a079e37a9c9c36b9b78b10169e8,124.99,ba2c96ccbecc0d2af672aac3bc3e10de,4,-23.948560791563267,-46.330481054388656,moveis_escritorio,2
84716102ab4d906f65136c89fca3f0c3,santos,SP,e48f28e15158bd10b02972eae44c8e7e,2017-05-09 12:33:38,2,a9516a079e37a9c9c36b9b78b10169e8,124.99,ba2c96ccbecc0d2af672aac3bc3e10de,4,-23.948560791563267,-46.330481054388656,moveis_escritorio,2
cd042ac503b01b08c0c1e582bb978154,alagoinhas,BA,01db310c16db46c62c3d4e0857990f32,2017-02-13 16:22:39,1,a9516a079e37a9c9c36b9b78b10169e8,119.99,93ac91ef092822e23b26da459d19abd6,5,-12.131308112530371,-38.41339221578423,moveis_escritorio,1
7c5b076d0e0538b3a1d4899bd25f9545,itarana,ES,626434e11c37535d5f24e9d844249b55,2018-04-03 17:25:14,1,a9516a079e37a9c9c36b9b78b10169e8,116.99,97e6f1f11efeb433f108a32476d768c1,3,-19.8751143326052,-40.87644990100321,moveis_escritorio,3
7c5b076d0e0538b3a1d4899bd25f9545,itarana,ES,626434e11c37535d5f24e9d844249b55,2018-04-03 17:25:14,2,a9516a079e37a9c9c36b9b78b10169e8,116.99,97e6f1f11efeb433f108a32476d768c1,3,-19.8751143326052,-40.87644990100321,moveis_escritorio,3
7c5b076d0e0538b3a1d4899bd25f9545,itarana,ES,626434e11c37535d5f24e9d844249b55,2018-04-03 17:25:14,3,a9516a079e37a9c9c36b9b78b10169e8,116.99,97e6f1f11efeb433f108a32476d768c1,3,-19.8751143326052,-40.87644990100321,moveis_escritorio,3
db6c660d9e74e438134fe4085d3383eb,barro,CE,d0e63077f6007e4a398345cfb93225ac,2017-11-07 22:02:05,1,a9516a079e37a9c9c36b9b78b10169e8,112.99,f7b26e880461aef0cba24b65c58c7db1,4,-7.182492139369726,-38.78103658355524,moveis_escritorio,1
18955e83d337fd6b2def6b18a428ac77,sao bernardo do campo,SP,29150127e6685892b6eab3eec79f59c7,2018-01-12 20:48:24,1,4aa6014eceb682077f9dc4bffebc05b0,289.0,02fc48a9efa3e3d0f1a8ea26507eeec3,5,-23.724844312799323,-46.54934980798057,utilidades_domesticas,1
6747dabc507b18f4a1300777643744d7,uberlandia,MG,a8f412e6559ed350a64d8b9f2ecbcc84,2018-02-19 21:09:50,1,4aa6014eceb682077f9dc4bffebc05b0,299.99,3dc307785b5f57c2c873d306badf8365,5,-18.93766274398331,-48.2871755273824,utilidades_domesticas,1
f1884ea44780d4a7ae036095e5d8fd59,sao paulo,SP,1b71d6f1758208e8fc19537dee8e586e,2018-04-09 17:49:55,1,4aa6014eceb682077f9dc4bffebc05b0,299.99,677aef773a30a3531b7beaf46e4bee6c,2,-23.588002157533317,-46.67242001090378,utilidades_domesticas,1
40e1601f4dd60faaea6b38c69223e617,sao paulo,SP,d631ff71a4160145d9473055d6cf74fb,2017-12-30 10:31:39,1,4aa6014eceb682077f9dc4bffebc05b0,252.0,969825e5cae762166a809e6d8f73cd5a,5,-23.52970803136361,-46.43385048542905,utilidades_domesticas,1
c101f8de6e1a9460a39aea808a4d5720,carmo do paranaiba,MG,8ce6aeb98624ab2ad6732488877b875e,2018-02-21 10:01:03,1,4aa6014eceb682077f9dc4bffebc05b0,299.99,d57fa5ecea57b52ece3c938f21a89264,4,-19.002214302635807,-46.31476495015462,utilidades_domesticas,1
e530863105eede13aab60014aa569bd7,volta redonda,RJ,e87da23aab323df28deb2e98d41a3fb0,2018-04-24 20:07:22,1,4aa6014eceb682077f9dc4bffebc05b0,299.99,78c72b3c707d0804938cdde9093895be,5,-22.505122194558254,-44.08912936164806,utilidades_domesticas,1
8f9cdc2bab0d953cab1e98d25253d8fe,urania,SP,710d9b541d2ae52ef56ef33f5e1b795c,2017-09-27 13:45:14,1,4aa6014eceb682077f9dc4bffebc05b0,279.99,018f5885814b98f2d5ef6d1f9b8b91df,5,-20.25176495275835,-50.647630819599954,utilidades_domesticas,1
700192c9b13d404047e50147fed3b544,lauro de freitas,BA,9c07c610bb722338cd517ec940417b40,2018-04-29 11:44:43,1,4aa6014eceb682077f9dc4bffebc05b0,299.99,45d856a39cb56fbbd0b62b4088780a15,4,-12.880358999999993,-38.328059249999974,utilidades_domesticas,1
681afb2f3720c1aa3d3fee254be18800,vera cruz,RS,1feca64d75daa682ce3174a1eff73d8b,2018-04-17 14:27:45,1,4aa6014eceb682077f9dc4bffebc05b0,299.99,4325b30c3f4d50bc91749533549f7bb6,4,-29.719480990736443,-52.49938558297402,utilidades_domesticas,1
107acedb78a612934d56d5adb64e80fd,itapema,SC,cb1f639d88a5c4d9049c6c61d563f5b8,2017-12-23 17:51:58,1,4aa6014eceb682077f9dc4bffebc05b0,248.0,3736c6b0302efc80722ea5c90487d5be,5,-27.099045,-48.61508849999999,utilidades_domesticas,1
1b37cbcdf20cfad2295c2511eb543048,curitiba,PR,9a64165cf939b42867416b35f8c13649,2018-06-07 19:11:24,1,4aa6014eceb682077f9dc4bffebc05b0,340.99,8a3a29f5dfaf60e0601943080ec78431,3,-25.47199957201804,-49.217848052166964,utilidades_domesticas,1
a709af5ae225ec3a6349256ab23d7252,botucatu,SP,9ff2fbb75e38eaef59472e29ddaf1769,2018-02-13 10:50:29,1,4aa6014eceb682077f9dc4bffebc05b0,289.0,1f3c36d4c8ec65ad2199ac71df43b654,5,-22.863783824311856,-48.44376083764205,utilidades_domesticas,1
1ab972e0df3d53501356ac9f78c8698a,poa,SP,180b4ae191a63f7b4b84273c98470fef,2017-10-07 11:38:57,1,4aa6014eceb682077f9dc4bffebc05b0,269.99,8e1818e128acdda554ef324a7e24d1c9,4,-23.52309274854291,-46.33702146003806,utilidades_domesticas,1
84ef3db1e67c71e9f2631d3b69fb651b,sao paulo,SP,79fea4eca2e5b9c77d549cbcdc60c8be,2017-12-11 19:09:10,1,4aa6014eceb682077f9dc4bffebc05b0,259.0,332a83d91dfe23cb15d5cd290240657b,5,-23.553145760747928,-46.62867092867446,utilidades_domesticas,1
b177b85f1efece7e6e46386b9e86699d,sao paulo,SP,c8c07db73aea73f15237a4eb11867551,2018-01-07 20:49:57,1,4aa6014eceb682077f9dc4bffebc05b0,252.0,39f7716087666ffa13d37c394989509e,5,-23.50017552178431,-46.63004299417162,utilidades_domesticas,1
4c0ec9d0d68c34fa2d98cec088a75f2e,curitiba,PR,42147d583a31840a77e1db9308e9bebc,2018-04-28 21:14:41,1,4aa6014eceb682077f9dc4bffebc05b0,299.99,fae86a6d122dd86d1a5e1eefce122d61,5,-25.373626113797666,-49.218794178313885,utilidades_domesticas,1
71a1cb321823bfbc0f0665edca5b63e5,sao paulo,SP,803e822a03730624352b85d6bb2727c3,2018-01-08 15:09:19,1,4aa6014eceb682077f9dc4bffebc05b0,252.0,335cbbdda13b4b11923753f8354c68d1,4,-23.65393847821569,-46.61116200000001,utilidades_domesticas,1
86952b2c00e25ae433fc21f72236b360,uberlandia,MG,d242fb417c35b6973c20dfab0514f8a1,2018-01-05 15:04:07,1,4aa6014eceb682077f9dc4bffebc05b0,252.0,a3a794e568e69e8c815480b3b59fa7c2,1,-18.965159853453763,-48.3315602267586,utilidades_domesticas,1
96921ad25d266bdd979a8106edcd1e57,sao goncalo,RJ,9c074b1d5c9fcaa13fdea5c761dca404,2017-08-07 08:31:36,1,4aa6014eceb682077f9dc4bffebc05b0,294.99,481fcedb4b8e0f4b283e60458f909c3f,4,-22.812780170151417,-43.02381790175028,utilidades_domesticas,1
0f4e44ea6ea0a296018a776d4c5c5cde,vinhedo,SP,3ac3d00c110eba19a72b3a2c8b8b8e38,2018-05-10 14:40:29,1,4aa6014eceb682077f9dc4bffebc05b0,320.99,4c29ab1bf5fda341b4fa5fe4ac0d04c8,5,-23.037764311074657,-46.97605926693608,utilidades_domesticas,1
8375daf7c9c3eea1fc3b36072672223c,uberlandia,MG,2ab2d565315e05cc62d7462113cc1ff0,2018-04-24 22:12:17,1,4aa6014eceb682077f9dc4bffebc05b0,299.99,4fd1ca3f646ec8cf5dd64862bb994c47,5,-18.88515960727678,-48.26123938758731,utilidades_domesticas,1
366e99a4996b3f8f781b60d7549f9e38,porto alegre,RS,3606d0126c19d4197f835572f5162c20,2018-01-25 19:46:47,1,4aa6014eceb682077f9dc4bffebc05b0,289.0,88b68c0311e23c00248c2fb4c61b96b1,4,-30.050766205956283,-51.203174394870274,utilidades_domesticas,1
5ae86ece6d5aadff5afe461f7afe2d59,curitiba,PR,1f1c7f4a61de956eb59c80c6d1f73a2a,2018-05-09 00:09:44,1,4aa6014eceb682077f9dc4bffebc05b0,320.99,89f0f55b7af6dfef2c3672062bdb39f6,4,-25.43742582624509,-49.27536337330481,utilidades_domesticas,1
597e456d1bb6e8dbde1ebcae4734e978,pelotas,RS,e2a2dd06d145888e8ae6cd472c742e7d,2017-12-10 21:11:07,1,4aa6014eceb682077f9dc4bffebc05b0,259.0,c0e275ddbf27708cab35df9057e65770,1,-31.738170468492164,-52.30567484165275,utilidades_domesticas,1
45fe2252085862b525531b84784925ba,canoas,RS,31fca6f177220b53db96805f70b9fe3f,2017-12-21 18:20:28,1,4aa6014eceb682077f9dc4bffebc05b0,259.0,8cd0784155d0a75b67fc342989c852d9,4,-29.92132755063776,-51.18339971426511,utilidades_domesticas,1
6f07bb42f6c59154127287ec0e84a528,santo angelo,RS,6791e565e137a3933b0f7ba7fba46cf2,2017-08-31 15:57:44,1,4aa6014eceb682077f9dc4bffebc05b0,286.99,8317610692c596255220504527bc75c3,5,-28.309565583510146,-54.26567370971796,utilidades_domesticas,1
6353fd2dcf4fd1323b0152156c37f4ef,bertioga,SP,3772c863e089768339269d261fadb421,2017-09-20 10:08:32,1,4aa6014eceb682077f9dc4bffebc05b0,289.99,d1635b0937421035e136531f94d6649a,5,-23.79699491694964,-45.99876469950258,utilidades_domesticas,1
15e7ed68c86d784a6295c7b6a94673e9,sao paulo,SP,77ede8447b20111ac7804d1f88bdf5ae,2018-04-17 14:16:02,1,4aa6014eceb682077f9dc4bffebc05b0,299.99,d5353eb3abea7a9237a483b2ee475715,5,-23.49995567638064,-46.51315104717529,utilidades_domesticas,1
58a15aaedb05561fc5187f0d1e1052d5,castro,PR,5720bc11a86749d980e65cac6e3ff08f,2017-11-09 09:37:49,1,4aa6014eceb682077f9dc4bffebc05b0,289.99,b8d94f6d8487bdcb9010f70371781a1e,5,-24.79560508075352,-50.004727628862,utilidades_domesticas,1
6a3593ddb3fa10742d7f50578eb6820a,governador valadares,MG,0c04a8d0583f8011fd121211aac94d05,2018-05-10 12:49:00,1,4aa6014eceb682077f9dc4bffebc05b0,320.99,a8c6c6c67dd0a9d2fe85cc513f175c5c,5,-18.84372430436544,-41.922857582070115,utilidades_domesticas,1
144bb6dcbed94956a8473aad73f0987f,rio claro,SP,174b81b8891c8236be516fb8097f729b,2018-06-30 07:43:15,1,4aa6014eceb682077f9dc4bffebc05b0,340.99,e5687e3a2711a893f83f4d9edaad6cbe,5,-22.375236959068374,-47.55278763029477,utilidades_domesticas,1
2627062e62fbbad031ac86476ea46889,salvador,BA,0a68b93a3fda1e48b30171c8db35b938,2018-05-13 09:52:51,1,4aa6014eceb682077f9dc4bffebc05b0,330.99,689cc6633d7a458a074d9cb1ac605377,4,-12.993054541933232,-38.503777597878376,utilidades_domesticas,1
152e0f1f108e8820600a9572e1cc8107,sao carlos,SP,fc2fce216ba47a84e54367275351c67a,2018-01-09 18:56:38,1,4aa6014eceb682077f9dc4bffebc05b0,289.0,a47b9017e02ba31655caf84db47f3f7c,5,-21.99713293986425,-47.86828626632843,utilidades_domesticas,3
152e0f1f108e8820600a9572e1cc8107,sao carlos,SP,fc2fce216ba47a84e54367275351c67a,2018-01-09 18:56:38,2,4aa6014eceb682077f9dc4bffebc05b0,289.0,a47b9017e02ba31655caf84db47f3f7c,5,-21.99713293986425,-47.86828626632843,utilidades_domesticas,3
152e0f1f108e8820600a9572e1cc8107,sao carlos,SP,fc2fce216ba47a84e54367275351c67a,2018-01-09 18:56:38,3,4aa6014eceb682077f9dc4bffebc05b0,289.0,a47b9017e02ba31655caf84db47f3f7c,5,-21.99713293986425,-47.86828626632843,utilidades_domesticas,3
dafdad1b3be4401d27d372226043843f,sao paulo,SP,51a4d80c45232e938d7504001271af64,2017-12-03 16:28:56,1,4aa6014eceb682077f9dc4bffebc05b0,269.0,3627fae50003c532f4893c04d9f9682a,4,-23.621175503462453,-46.73757052553523,utilidades_domesticas,1
8ad04bff9d06c103ee398afe6d4a0cb4,porto alegre,RS,ba2effd965d1fc79dbcaa17d401b3c99,2017-12-20 20:52:57,1,4aa6014eceb682077f9dc4bffebc05b0,259.0,6dd9a2a39bba8b7b0ae364a2e0960e56,5,-30.041372525390997,-51.22514270523408,utilidades_domesticas,1
d26369eedad84bda287c3a7c457c2190,belo horizonte,MG,1de8f07a2c99c2a100504ee992d3f40c,2018-04-26 10:37:38,1,4aa6014eceb682077f9dc4bffebc05b0,299.99,49a3f429e0623247097a7b7e69115a17,3,-19.9040103805182,-43.93512849653756,utilidades_domesticas,1
4a2a832c77eb79506131e44421e1ce60,campo grande,MS,eaee45a05a0831bb38deeea970c0943c,2018-04-11 17:40:59,1,4aa6014eceb682077f9dc4bffebc05b0,299.99,0f2fac73fd4539b029794ba8ac5d7b40,5,-20.46596257617297,-54.605605730365255,utilidades_domesticas,1
b51593916b4b8e0d6f66f2ae24f2673d,sao luis,MA,fffc94f6ce00a00581880bf54a75a037,2018-04-23 13:57:06,1,4aa6014eceb682077f9dc4bffebc05b0,299.99,9185f849f32d82e216a4e025e0c50f5c,5,-2.5477852733856365,-44.251647606295826,utilidades_domesticas,1
359b9d6f7f8977275076290b0e6f509c,sao roque,SP,2923a376a5261c606382087bafd07908,2018-01-16 19:27:53,1,4aa6014eceb682077f9dc4bffebc05b0,289.0,c95c890614f88bb82998d7cd639a4dac,5,-23.535369567385914,-47.136430297065104,utilidades_domesticas,1
4487a084654cdf96e3d715d55b48a04b,curitiba,PR,ab85e3c92c828eb802fd91345e45d92e,2018-05-18 23:47:11,1,4aa6014eceb682077f9dc4bffebc05b0,330.99,591cb026067a5681efba78376ad02d70,3,-25.496172,-49.29815255868784,utilidades_domesticas,1
1a2dcd73a29c02da2571be39f7f77765,limeira,SP,6507e6d141c37a9f7813b5432ba24844,2018-06-21 08:59:32,1,4aa6014eceb682077f9dc4bffebc05b0,340.99,83c62fae5520c0f2dc8ee76ca9096436,5,-22.564760668330553,-47.447471268798,utilidades_domesticas,1
8443f32ce8f32007d1bb7beca8f386da,porto alegre,RS,ca8abc474e7636166e173909fa9973ce,2018-04-29 18:45:34,1,4aa6014eceb682077f9dc4bffebc05b0,299.99,c92a7efd46270fd8d8782d04af427a38,4,-30.02943151485941,-51.212852947544576,utilidades_domesticas,1
b9b7291179ec5d0952af8830e4b22679,sao paulo,SP,f0ab754d500c0fe13432dea76cdb2aaf,2018-01-05 19:49:49,1,4aa6014eceb682077f9dc4bffebc05b0,252.0,5ab402dd62cfe32599ef08abb9f1facd,5,-23.525186395781628,-46.603451284205676,utilidades_domesticas,1
7972adc90c55b1426a19d090b47a8a1b,caxias do sul,RS,052ef5dcbed8fd1d4d01ba597103168e,2017-11-12 00:03:36,1,4aa6014eceb682077f9dc4bffebc05b0,289.99,ff13810e91ca2f2bb858ffbea71fc220,4,-29.132762343007908,-51.19515583861041,utilidades_domesticas,1
32accfa73a50df8affdd6855e8da62da,londrina,PR,c0c6ffffde824ef615117d191bb55aea,2018-03-13 11:10:49,1,4aa6014eceb682077f9dc4bffebc05b0,299.99,b743c304432494c0599e5992c6c70a73,1,-23.33041554754996,-51.17950350000001,utilidades_domesticas,1
4e7b3e00288586ebd08712fdd0374a03,sao paulo,SP,b2059ed67ce144a36e2aa97d2c9e9ad2,2018-05-19 16:07:45,1,bd07b66896d6f1494f5b86251848ced7,139.94,5ad6695d76ee186dc473c42706984d87,5,-23.531294001384982,-46.656404093946584,moveis_escritorio,1
b74584aa39691bb6fdd0f68571d3ba0b,camocim,CE,410cfb42b9a36728a695fe883df04ebf,2018-06-04 20:28:14,1,bd07b66896d6f1494f5b86251848ced7,149.99,b928be3a9fb638f4eea31d7da9ba30e5,5,-2.8911068728028577,-40.846737986770094,moveis_escritorio,2
b74584aa39691bb6fdd0f68571d3ba0b,camocim,CE,410cfb42b9a36728a695fe883df04ebf,2018-06-04 20:28:14,2,bd07b66896d6f1494f5b86251848ced7,149.99,b928be3a9fb638f4eea31d7da9ba30e5,5,-2.8911068728028577,-40.846737986770094,moveis_escritorio,2
bcf130ec4f60035b99625fd5c5fc88ed,sao vicente,SP,020d1063c6e7cb975472aedbfe0e25ea,2018-01-05 00:16:05,1,bd07b66896d6f1494f5b86251848ced7,139.94,c4cfcf9f835f7825a6b934ee246f79f0,4,-23.963384371635104,-46.3722399840831,moveis_escritorio,1
522798e320397e9049c8ec58d85843bb,rio de janeiro,RJ,cd74cd8f3a1445a29e098dcac4cc8d11,2018-07-19 20:33:00,1,bd07b66896d6f1494f5b86251848ced7,149.98,52a62ed3801ce4331d91acb424a60c64,1,-22.932160438253746,-43.17577099417162,moveis_escritorio,2
522798e320397e9049c8ec58d85843bb,rio de janeiro,RJ,cd74cd8f3a1445a29e098dcac4cc8d11,2018-07-19 20:33:00,2,bd07b66896d6f1494f5b86251848ced7,149.98,52a62ed3801ce4331d91acb424a60c64,1,-22.932160438253746,-43.17577099417162,moveis_escritorio,2
41e8d9c16fbf082197a4584299fc7c03,sao paulo,SP,b7a7ac8cd7f24354a07b090362fbb6bd,2018-06-25 23:07:50,1,bd07b66896d6f1494f5b86251848ced7,139.94,86050ad4124a2afd66d889eaa89500bb,5,-23.568077346932878,-46.58252319317327,moveis_escritorio,1
8af87a47ba60bce3719d7e19b6d1ff13,parnamirim,RN,9ec8b1c04bc01a42cb3896e90c2b701e,2017-10-23 15:58:21,1,bd07b66896d6f1494f5b86251848ced7,139.94,507d1ce32ce8624f1ebf4f3354b5a098,4,-5.92775811870951,-35.27916037621192,moveis_escritorio,1
12a72fb5d45a40da92479e66e6dc3597,porto alegre,RS,4a1e1c50a0cbfcab27c770fa8e92545e,2018-06-25 16:16:08,1,bd07b66896d6f1494f5b86251848ced7,139.94,f4415b0e0c5306fb1ef450bed9aff6d2,4,-30.044104124617697,-51.18209137800804,moveis_escritorio,1
c73c9dcfbc22dd5f107fe8ac7382978a,teresopolis,RJ,de29736b0c955c213b7ba952d5f3b9ec,2018-04-02 18:49:50,1,bd07b66896d6f1494f5b86251848ced7,139.94,746623ce377887caf3985e6c4ce7ec75,4,-22.40464642031035,-42.967104876586056,moveis_escritorio,1
b2b6027bc5c5109e529d4dc6358b12c3,mogi das cruzes,SP,951670f92359f4fe4a63112aa7306eba,2018-03-13 16:06:38,1,a5647c44af977b148e0a3a4751a09e2e,149.94,059a801bb31f6aab2266e672cab87bc5,5,-23.49394439768382,-46.18081652977057,moveis_escritorio,1
2fae54536dde6fcf04a52571421e5813,carmo do paranaiba,MG,1409fa8d66178147ed431573330397c0,2017-02-09 15:04:18,1,a5647c44af977b148e0a3a4751a09e2e,176.96,00577b347f98b48d28ce87c4a35cddc0,5,-19.002214302635807,-46.31476495015462,moveis_escritorio,2
2fae54536dde6fcf04a52571421e5813,carmo do paranaiba,MG,1409fa8d66178147ed431573330397c0,2017-02-09 15:04:18,2,a5647c44af977b148e0a3a4751a09e2e,176.96,00577b347f98b48d28ce87c4a35cddc0,5,-19.002214302635807,-46.31476495015462,moveis_escritorio,2
bc544aa58e763853480832008085049b,santa maria,RS,6cee580f42792d77f81c03cf6aa73423,2017-04-26 16:09:48,1,a5647c44af977b148e0a3a4751a09e2e,166.96,28dc61030c79a15ee9baaaabe2f51ae5,5,-29.6864111740147,-53.796139391482455,moveis_escritorio,1
9db61f02788ba2a816117b4d7dc2d58b,sao paulo,SP,665d84d48d4c7c497117465e6f02f92f,2018-07-10 09:13:20,1,a5647c44af977b148e0a3a4751a09e2e,159.98,31bccb8a92ef436bff3b116af68ca0f7,1,-23.741483177949647,-46.70874771215213,moveis_escritorio,2
9db61f02788ba2a816117b4d7dc2d58b,sao paulo,SP,665d84d48d4c7c497117465e6f02f92f,2018-07-10 09:13:20,2,a5647c44af977b148e0a3a4751a09e2e,159.98,31bccb8a92ef436bff3b116af68ca0f7,1,-23.741483177949647,-46.70874771215213,moveis_escritorio,2
034dbf527c403a97312d2d20abb0d0d3,santana de parnaiba,SP,12019ed87b97cee3add615b1f8c9e9b0,2018-07-24 12:01:12,1,a5647c44af977b148e0a3a4751a09e2e,149.98,6ee01b5a987a7d5143da8d42c29eea6c,3,-23.466611060749578,-46.857394790859786,moveis_escritorio,1
ef818121a19d344c36de34bd067b03c7,palmas,TO,1b48e0e9948536f454c10a2a97426f11,2018-05-03 15:19:21,1,a5647c44af977b148e0a3a4751a09e2e,159.94,e34ea7f78d6f3ab0e05d7889e512af98,5,-10.245999156052378,-48.32836246122868,moveis_escritorio,1
a82b9b34045d89be1440c237620e3261,sao paulo,SP,086d49a75db554056a171c0c706a7e18,2017-11-06 15:04:33,1,a5647c44af977b148e0a3a4751a09e2e,149.94,44bc69d1b7152e3ffafc7364a35ae192,3,-23.597977631686827,-46.68086136358132,moveis_escritorio,1
69cb766f106988cd621b3b6c67221826,rio de janeiro,RJ,a2a53e824841856d25e9fe22467e4209,2017-07-19 12:39:52,1,a5647c44af977b148e0a3a4751a09e2e,169.94,85be9a10b27a21c74e3586025637553f,4,-22.915949351728784,-43.21235613840122,moveis_escritorio,4
69cb766f106988cd621b3b6c67221826,rio de janeiro,RJ,a2a53e824841856d25e9fe22467e4209,2017-07-19 12:39:52,2,a5647c44af977b148e0a3a4751a09e2e,169.94,85be9a10b27a21c74e3586025637553f,4,-22.915949351728784,-43.21235613840122,moveis_escritorio,4
69cb766f106988cd621b3b6c67221826,rio de janeiro,RJ,a2a53e824841856d25e9fe22467e4209,2017-07-19 12:39:52,3,a5647c44af977b148e0a3a4751a09e2e,169.94,85be9a10b27a21c74e3586025637553f,4,-22.915949351728784,-43.21235613840122,moveis_escritorio,4
69cb766f106988cd621b3b6c67221826,rio de janeiro,RJ,a2a53e824841856d25e9fe22467e4209,2017-07-19 12:39:52,4,a5647c44af977b148e0a3a4751a09e2e,169.94,85be9a10b27a21c74e3586025637553f,4,-22.915949351728784,-43.21235613840122,moveis_escritorio,4
72084a1e3062cb9ca0a1996696556069,itamarandiba,MG,eb30798770640f6c632d2cab023ec58d,2017-06-24 15:29:07,1,a5647c44af977b148e0a3a4751a09e2e,189.94,f43a40e3aeea1ea9f281a59766856812,4,-17.859238740051595,-42.86162716348432,moveis_escritorio,3
72084a1e3062cb9ca0a1996696556069,itamarandiba,MG,eb30798770640f6c632d2cab023ec58d,2017-06-24 15:29:07,2,a5647c44af977b148e0a3a4751a09e2e,189.94,f43a40e3aeea1ea9f281a59766856812,4,-17.859238740051595,-42.86162716348432,moveis_escritorio,3
72084a1e3062cb9ca0a1996696556069,itamarandiba,MG,eb30798770640f6c632d2cab023ec58d,2017-06-24 15:29:07,3,a5647c44af977b148e0a3a4751a09e2e,189.94,f43a40e3aeea1ea9f281a59766856812,4,-17.859238740051595,-42.86162716348432,moveis_escritorio,3
bfa1c30e404361ba4414a3c628341ba0,foz do iguacu,PR,1cfce7466cb5b7c473426907c2cb148f,2017-11-29 14:06:39,1,a5647c44af977b148e0a3a4751a09e2e,149.94,83d1149212ad8b79fc39230d088ef2dd,2,-25.53776045011855,-54.5802499981831,moveis_escritorio,3
bfa1c30e404361ba4414a3c628341ba0,foz do iguacu,PR,1cfce7466cb5b7c473426907c2cb148f,2017-11-29 14:06:39,2,a5647c44af977b148e0a3a4751a09e2e,149.94,83d1149212ad8b79fc39230d088ef2dd,2,-25.53776045011855,-54.5802499981831,moveis_escritorio,3
bfa1c30e404361ba4414a3c628341ba0,foz do iguacu,PR,1cfce7466cb5b7c473426907c2cb148f,2017-11-29 14:06:39,3,a5647c44af977b148e0a3a4751a09e2e,149.94,83d1149212ad8b79fc39230d088ef2dd,2,-25.53776045011855,-54.5802499981831,moveis_escritorio,3
1be3aceab3595d6f6b923858d5b44edd,santos,SP,8b486b19bcb4db26c3e24a6e6d4e2e39,2018-03-27 17:19:28,3,a5647c44af977b148e0a3a4751a09e2e,159.94,03c0a0c8d0a0f176bc1f5ebe9ab2b01f,5,-23.9672318731606,-46.301752927289456,moveis_escritorio,5
1be3aceab3595d6f6b923858d5b44edd,santos,SP,8b486b19bcb4db26c3e24a6e6d4e2e39,2018-03-27 17:19:28,1,d6fe3b4ddecd4a8393c6a1385de3bfb6,186.97,03c0a0c8d0a0f176bc1f5ebe9ab2b01f,5,-23.9672318731606,-46.301752927289456,moveis_escritorio,5
1be3aceab3595d6f6b923858d5b44edd,santos,SP,8b486b19bcb4db26c3e24a6e6d4e2e39,2018-03-27 17:19:28,2,d6fe3b4ddecd4a8393c6a1385de3bfb6,186.97,03c0a0c8d0a0f176bc1f5ebe9ab2b01f,5,-23.9672318731606,-46.301752927289456,moveis_escritorio,5
1be3aceab3595d6f6b923858d5b44edd,santos,SP,8b486b19bcb4db26c3e24a6e6d4e2e39,2018-03-27 17:19:28,4,d6fe3b4ddecd4a8393c6a1385de3bfb6,186.97,03c0a0c8d0a0f176bc1f5ebe9ab2b01f,5,-23.9672318731606,-46.301752927289456,moveis_escritorio,5
1be3aceab3595d6f6b923858d5b44edd,santos,SP,8b486b19bcb4db26c3e24a6e6d4e2e39,2018-03-27 17:19:28,5,d6fe3b4ddecd4a8393c6a1385de3bfb6,186.97,03c0a0c8d0a0f176bc1f5ebe9ab2b01f,5,-23.9672318731606,-46.301752927289456,moveis_escritorio,5
2de3c6bbbf7519ebf48c6b28a2416227,santo anastacio,SP,9676f1e8ea577fa55c55fdf4f0083a0d,2017-10-25 09:34:31,1,a5647c44af977b148e0a3a4751a09e2e,149.94,e23d7ce9807fc071b7fcb74cc85183df,3,-21.974656716306143,-51.64769962236168,moveis_escritorio,1
4f2d8ab171c80ec8364f7c12e35b23ad,campinas,SP,6b7d50bd145f6fc7f33cebabd7e49d0f,2018-07-29 09:51:30,1,9391a573abe00141c56e38d84d7d5b3b,230.0,8490879d58d6c5d7773f2739a03f089a,5,-22.993052563967947,-47.139272329996,casa_conforto,1
ed9d62c3af1f6b24e984d012f66eca35,itanhem,BA,1dfe970583e8a1a09241aa32a815a5b4,2018-07-18 17:21:49,1,9391a573abe00141c56e38d84d7d5b3b,230.0,b1baef9d80d6b337ca8563d2f9f65476,2,-17.170140376904847,-40.330891647099854,casa_conforto,1
91489087a2f86dd3476f0d949946aea2,osasco,SP,60374093aa8d84de08b2c04a3eec89c4,2017-11-22 11:00:02,1,9391a573abe00141c56e38d84d7d5b3b,230.0,dca44f7f3fc3910f01b43a82379d4278,1,-23.536140129257078,-46.794693261485634,casa_conforto,1
de803ca99877b56ce0d121b7e2d57bc5,coronel fabriciano,MG,01667048de265bad400b945f29b52526,2017-07-01 12:25:09,1,9391a573abe00141c56e38d84d7d5b3b,230.0,d05d2d1408be42e8a1cf0f203a8f3ef9,5,-19.522436936735602,-42.629840702023614,casa_conforto,1
879864dab9bc3047522c92c82e1212b8,jaragua do sul,SC,5741ea1f91b5fbab2bd2dc653a5b5099,2017-09-14 18:14:31,1,0be701e03657109a8a4d5168122777fb,259.9,9a6614162d285301aa3ef6de4be75265,5,-26.45323934471119,-49.11768344520729,esporte_lazer,1
56a4d10644e5aa0b23861f9e90f37a8d,boa vista,RR,fe157fed1771944584f95dce138eefad,2018-06-05 18:54:48,1,0be701e03657109a8a4d5168122777fb,259.9,3761ccb2e093c302567d5f2d9bf42960,3,2.8081918454638854,-60.684483153625706,esporte_lazer,1
119964566e4c0cbef2dac4d8a4291338,bayeux,PB,cda58baf4fa440869e819a444c1a65cd,2018-07-17 11:27:25,1,0be701e03657109a8a4d5168122777fb,259.9,7eeb36bccf52bc0582cd5267f0cebb62,2,-7.123880099537799,-34.9162059879465,esporte_lazer,1
ceefb0b07a8b7a9f0272d3e2d4861506,brasilia,DF,fd5f4a26279e437735f4d5da152f5295,2017-12-13 20:30:12,1,0be701e03657109a8a4d5168122777fb,259.9,699214a1b68285eb2448c41d2f9a38a7,5,-15.919106739966809,-48.060628913322276,esporte_lazer,2
ceefb0b07a8b7a9f0272d3e2d4861506,brasilia,DF,fd5f4a26279e437735f4d5da152f5295,2017-12-13 20:30:12,2,0be701e03657109a8a4d5168122777fb,259.9,699214a1b68285eb2448c41d2f9a38a7,5,-15.919106739966809,-48.060628913322276,esporte_lazer,2
fd826e7cf63160e536e0908c76c3f441,sao paulo,SP,36e694cf4cbc2a4803200c35e84abdc4,2018-02-19 14:38:35,1,b5466db4cecf95c3c1be0ba32538ce1a,14.99,bc88d3b86fa8443d42894eb7b5f0d73c,5,-23.58319352262103,-46.67228964876796,informatica_acessorios,1
70a143bf0866aa6c1ba15fab452335a8,sao paulo,SP,d4bf9a6552dbfc7f1b2f6abbb1028b99,2018-01-05 09:37:24,1,b5466db4cecf95c3c1be0ba32538ce1a,14.99,059c801ceedd6d1cde772f9da7d7f7ca,5,-23.472004872323875,-46.60844051151253,informatica_acessorios,1
6360554117752d0c465cece6bd0b985e,sao jose dos campos,SP,d28b5d86a3eed220a736db5a42815270,2018-01-17 11:56:39,1,b5466db4cecf95c3c1be0ba32538ce1a,14.99,b46debc8f5df29f033b643891f07dce1,5,-23.215917803220037,-45.90715251734092,informatica_acessorios,2
6360554117752d0c465cece6bd0b985e,sao jose dos campos,SP,d28b5d86a3eed220a736db5a42815270,2018-01-17 11:56:39,2,b5466db4cecf95c3c1be0ba32538ce1a,14.99,b46debc8f5df29f033b643891f07dce1,5,-23.215917803220037,-45.90715251734092,informatica_acessorios,2
5adf08e34b2e993982a47070956c5c65,curitiba,PR,1ebeea841c590e86a14a0d7a48e7d062,2018-01-18 12:35:44,1,08401f48b67a852d06105725c3013eff,25.0,8566d94f7bf3bedbb4ca6a29725fc382,5,-25.477517850395326,-49.22418436525474,brinquedos,1
bcd3b772c85178c6ed242c4583634ee5,campos dos goytacazes,RJ,6df3204d235cde9188ca8235366848b7,2018-03-21 11:28:35,1,08401f48b67a852d06105725c3013eff,25.0,6662c6a9e17a840b619eeeeb7ff93ae7,5,-21.758653342005587,-41.32147896557957,brinquedos,2
bcd3b772c85178c6ed242c4583634ee5,campos dos goytacazes,RJ,6df3204d235cde9188ca8235366848b7,2018-03-21 11:28:35,2,08401f48b67a852d06105725c3013eff,25.0,6662c6a9e17a840b619eeeeb7ff93ae7,5,-21.758653342005587,-41.32147896557957,brinquedos,2
973e21d9b220229aedc9ac566294568f,rio de janeiro,RJ,c432ba5b3bb83966c1b66696c395a2fb,2017-12-02 07:55:59,1,08401f48b67a852d06105725c3013eff,25.0,d51ecbf11a31e4cc953321ba6853842a,5,-22.983773489324182,-43.21397325437127,brinquedos,1
35360c7bf285a50013e36d0d6fd0180c,sao goncalo do para,MG,2f24a9aa9e22ecf0fefd3addda233611,2018-03-11 17:31:23,1,08401f48b67a852d06105725c3013eff,25.0,f2fc1ccbedaf62be611cfaadf515aaf2,1,-19.982464065164088,-44.85187565603814,brinquedos,1
d3d14e3778714a38a67735307ac56a73,lavras,MG,2c76b4566b3bab2c0f23f992ed70ea07,2018-01-30 11:12:55,1,08401f48b67a852d06105725c3013eff,25.0,d2b8f267fe502fdce6f7ab281769a641,5,-21.25221341909516,-45.003663015407675,brinquedos,1
678316fc81f8e125073131039e379c77,costa rica,MS,97ea8a6df3851db9452426e8aace15eb,2018-02-04 18:59:41,1,08401f48b67a852d06105725c3013eff,25.0,70ab791eae5d8cac9e0887bf50343037,3,-18.53114066444129,-53.138045111032106,brinquedos,1
efcd7d8360b578ca5bc76b33ab4b3aa9,vila velha,ES,ab2bdf1229c8b790d6ebf0f703023f01,2018-03-27 13:25:46,1,08401f48b67a852d06105725c3013eff,25.0,e7a27d0f064838ee30ca9a2b7139893b,5,-20.330338821678254,-40.283430214452146,brinquedos,1
4b7139f34592b3a31687243a302fa75b,belo horizonte,MG,7433cbcc783205509d66a5260da5b574,2018-01-08 11:22:34,1,78efe838c04bbc568be034082200ac20,99.9,07f4bedc3ab711f4b3400ceaecdd9f9b,5,-19.966590365543205,-43.97093862753189,moveis_decoracao,1
6bc2db722431353a176d8d00146e55d0,piracicaba,SP,20a0f3d89273ba4b9525ba497e2821e8,2018-08-08 22:55:31,1,78efe838c04bbc568be034082200ac20,99.9,811a4673cc44a9367e56aaa7a236155a,4,-22.742085164031376,-47.67024037898898,moveis_decoracao,1
da513f66aecb0c97a487d422bf105af0,tubarao,SC,9f47d2a87f425d871b3dafe4bc377b01,2018-05-19 21:04:30,1,78efe838c04bbc568be034082200ac20,99.9,792366e14d5a51f5b6610248684c2a20,5,-28.46519757951986,-49.00941479822838,moveis_decoracao,1
3f774a8ca68da8fc546c22ba0e483568,niteroi,RJ,90553773adebd97e53db3810be841c91,2018-02-11 11:50:35,1,78efe838c04bbc568be034082200ac20,99.9,e1df14d1d427e92b34801ea5270a51d7,5,-22.907589191788308,-43.1100490963125,moveis_decoracao,1
a69d0bacb0c135ea37032600687cd693,ananindeua,PA,a3309e7ee5cbc991563c83bc0c41d694,2018-05-16 15:07:42,1,78efe838c04bbc568be034082200ac20,99.9,ca8a56e472f6e42c67ce27c9ba9ae89c,4,-1.3626624707085715,-48.396886462029215,moveis_decoracao,1
e49ae57f4bf25972e1e4cbc3794c5806,cascavel,PR,f66b2f5f778a4ba2ab4b97679dd30f64,2018-04-30 14:09:44,1,78efe838c04bbc568be034082200ac20,99.9,87447931f281794fab938f0942ba3ef3,4,-24.944010601708204,-53.461061853453764,moveis_decoracao,1
671d195fc506d85dbf66c878175df9e5,paracatu,MG,56977f88a655bfbcd1e8f20a20959f5b,2018-07-24 14:47:59,1,78efe838c04bbc568be034082200ac20,70.0,5004f61b7eb06095aeac9f14ea46d688,5,-17.230217576531338,-46.86129317007311,moveis_decoracao,1
7ca21490a9d1f75bb84871b6e57177cb,belo horizonte,MG,4f16d07441ebb275f11b0c403433a20b,2018-08-01 13:02:26,1,78efe838c04bbc568be034082200ac20,70.0,b17ffaf551027bafe85b7fe25ad2efa6,5,-19.924894676380628,-43.94848139009749,moveis_decoracao,1
8935036852a292fe1f61a03c7d51831d,araruama,RJ,00ac05fe0fc047c54418098eb64e3aaa,2018-02-18 14:19:55,1,78efe838c04bbc568be034082200ac20,99.9,5fbaf2d47b555b58748f5f7b9db01a7d,2,-22.877452114584212,-42.37846052184058,moveis_decoracao,1
b0dcdd6af159e2c0b239f92dcc095d38,sao paulo,SP,90b6cdda02bbf9ef9a404d36e11a8268,2018-05-16 17:23:26,1,78efe838c04bbc568be034082200ac20,99.9,a684aebe1863c9586aebd3e558bb4821,1,-23.493872357204676,-46.59882309005144,moveis_decoracao,2
b0dcdd6af159e2c0b239f92dcc095d38,sao paulo,SP,90b6cdda02bbf9ef9a404d36e11a8268,2018-05-16 17:23:26,2,f08b29913c73e394bc8477b1e69f7762,102.0,a684aebe1863c9586aebd3e558bb4821,1,-23.493872357204676,-46.59882309005144,moveis_decoracao,2
13dd0be11da8090257208e3e0e7af578,sao paulo,SP,1fba59812d94723a89e83c562c775750,2018-06-21 14:06:14,1,78efe838c04bbc568be034082200ac20,99.9,e94d91b0f0c0da5a516283a048c32633,5,-23.64861329615091,-46.66888515528881,moveis_decoracao,1
de3488839c20b6109821b6a1af9818df,maua,SP,e18ebd6286697a3f0f6fe267d8286cb2,2018-01-08 12:09:06,1,78efe838c04bbc568be034082200ac20,99.9,ef8ae544c432bb1053ba5990bd0d6227,1,-23.67347842248891,-46.47077761165343,artes,1
de3488839c20b6109821b6a1af9818df,maua,SP,e18ebd6286697a3f0f6fe267d8286cb2,2018-01-08 12:09:06,1,78efe838c04bbc568be034082200ac20,99.9,ef8ae544c432bb1053ba5990bd0d6227,1,-23.67347842248891,-46.47077761165343,moveis_decoracao,1
de3488839c20b6109821b6a1af9818df,maua,SP,e18ebd6286697a3f0f6fe267d8286cb2,2018-01-08 12:09:06,2,4fe644d766c7566dbc46fb851363cb3b,139.99,ef8ae544c432bb1053ba5990bd0d6227,1,-23.67347842248891,-46.47077761165343,artes,1
de3488839c20b6109821b6a1af9818df,maua,SP,e18ebd6286697a3f0f6fe267d8286cb2,2018-01-08 12:09:06,2,4fe644d766c7566dbc46fb851363cb3b,139.99,ef8ae544c432bb1053ba5990bd0d6227,1,-23.67347842248891,-46.47077761165343,moveis_decoracao,1
a7276b8ee5943682b258aadbc2a19840,sao sebastiao do paraiso,MG,71fbb9971d84bf97accb75d2f70b04bd,2018-05-08 23:25:12,1,78efe838c04bbc568be034082200ac20,99.9,ad16ece37e1c625280baf64a557fcd13,5,-20.904817219918048,-46.984166205339406,moveis_decoracao,1
3fb3b5a901f4d21b944d1bd9ece51e60,cruzeiro,SP,bb31ece4e45d4374e78389359b01f690,2018-06-20 09:02:43,1,78efe838c04bbc568be034082200ac20,99.9,075ebe3a5e3e7bf937e0753bbbabec11,4,-22.575413285519804,-44.959659170300064,moveis_decoracao,1
37dbceec9ec09c507522d791301df431,belo horizonte,MG,0a9f89404bdc46f9d6be1c8c0226ba85,2018-03-02 17:28:49,1,78efe838c04bbc568be034082200ac20,99.9,dcb475acad7df5f096f679743c92f119,4,-19.86099868887411,-43.97041742812618,moveis_decoracao,1
94abeca9046cd53c28184824e6b06c7b,francisco beltrao,PR,eaa950f3b3db6c1a8f5d884992a997c0,2018-06-26 15:06:22,1,78efe838c04bbc568be034082200ac20,99.9,8c08bdddc05f836c4aa1ac221fcc6398,5,-26.041451424133967,-53.05096259884698,moveis_decoracao,1
9aebdec7f58b8eee8e2e495b0b0f67a1,porto alegre,RS,562123563a31d7d3d69fd9ce87a0d443,2018-08-01 23:27:56,1,78efe838c04bbc568be034082200ac20,70.0,1401fe6e3f74deecf826ee19567fd13e,5,-30.04097565528881,-51.209162972675756,moveis_decoracao,1
224d51fe180f7dd46ddec94c0c3f50d6,campo mourao,PR,e439b72b2d1f22819e11acbbc8102216,2018-07-25 14:15:54,1,78efe838c04bbc568be034082200ac20,70.0,c678aea5ee51f9547c7e4ae09292e37d,3,-24.039611274323896,-52.37854382703059,moveis_decoracao,1
ba94161da871323e204ddb6a0e073665,brusque,SC,a3897184827e7280957d9201ebb90da0,2018-01-12 07:35:19,1,78efe838c04bbc568be034082200ac20,99.9,cf38c52a6886421a8a51856ae73e2bd1,5,-27.073357648623716,-48.8894677024641,moveis_decoracao,1
9c510396420e45e8d5c5023cc2e73ce5,goiania,GO,2b7715df43e5e353fabf1846cde8529b,2018-07-24 08:44:48,1,78efe838c04bbc568be034082200ac20,70.0,40fd52232fb6c446d128808d676a9e3b,5,-16.687768010756756,-49.20851413517374,moveis_decoracao,1
03de10b74e57b7aa7c13361497c5c51a,tres coracoes,MG,d07f143b702491d2a1cd6ed093f2cdee,2018-02-11 17:27:31,1,78efe838c04bbc568be034082200ac20,99.9,7eb479aab8c9934b16999ff1715260c0,4,-21.697234723037077,-45.253443709634716,moveis_decoracao,1
898c951d2faff7482c962f6ec525adb6,rio do pires,BA,26cdf11da38117ed1bca961a210dd21d,2018-02-27 09:06:14,1,78efe838c04bbc568be034082200ac20,99.9,3f89732c603cea71b0ac8925734810a0,3,-13.117346482909179,-42.15071568400006,moveis_decoracao,1
b404c626366430d37af24dd5512928c2,paranavai,PR,9be8071edcd41670cec46c3c32f8d27a,2018-05-16 18:45:11,1,78efe838c04bbc568be034082200ac20,99.9,e2ec109382284ae0cb7654456cffb0fa,5,-23.090603372164697,-52.44956994630389,moveis_decoracao,1
dc1a33440c4324cd65028d2cf2adce0e,sao goncalo,RJ,52a33f96555a51b48edfbc76f5158dc2,2018-03-02 08:23:08,1,78efe838c04bbc568be034082200ac20,99.9,68377f5e43e0f3e377a54dad2c9120be,5,-22.891864835819007,-43.00676468403852,moveis_decoracao,1
6652a9f23322cac2d52cee9daca89c98,frei rogerio,SC,252f06dcd7681afcebd85eb7ac245b03,2018-01-18 14:39:53,1,78efe838c04bbc568be034082200ac20,99.9,490ab3af88641c2eb432607e660e08ff,5,-27.17821348474281,-50.80752579866748,moveis_decoracao,1
bd2215daa338b34c697773ceff4e013b,salvador,BA,54bc2449fbe0368b74470e4280fe494e,2018-04-24 13:35:49,1,78efe838c04bbc568be034082200ac20,99.9,fd280616682acdb24b179afd70055ede,5,-12.963893783513189,-38.504256658202976,moveis_decoracao,1
8cca023b5d133ac5e6e6d5dbc06dc1ce,sao luis,MA,479c3d9dbad0a2c502fcb73fd59c65b3,2018-02-25 18:03:16,1,78efe838c04bbc568be034082200ac20,99.9,2d328b6fc1ffd83ef41801c681fc3447,1,-2.5227802780888338,-44.29469231695425,moveis_decoracao,1
5396d78e1b3653707e4818ffb0bdbbae,sao paulo,SP,7621cc2a775c5028fffdf0727940d435,2018-02-01 11:48:02,1,78efe838c04bbc568be034082200ac20,99.9,d12136169d808cc61d17dabb00d73f09,5,-23.618745233042212,-46.59252625615137,moveis_decoracao,1
9dd548f9d9379d6036df9451f8ac4530,betim,MG,a0b6cfb8b86687ef318ba596e2a1ed5a,2018-01-22 17:08:22,1,78efe838c04bbc568be034082200ac20,99.9,6681d827c98165621651c43daaa61c5c,5,-19.94168979739165,-44.10919484110451,moveis_decoracao,1
7456113cce8651aa1338725882c6a353,juiz de fora,MG,60411e99d7a03ab219097882e0a58118,2017-12-05 20:24:01,1,78efe838c04bbc568be034082200ac20,99.9,6e5b659171932617297587027d210f9b,5,-21.76989724340702,-43.35137279724741,moveis_decoracao,1
eb842a4e3f013cd22643e02100ed430b,santo andre,SP,0e8a52f34b055d2027ea7807c20119c4,2018-07-31 20:25:18,1,78efe838c04bbc568be034082200ac20,70.0,6bb8ad080d340515afebac28bdeb2c72,4,-23.63418981764676,-46.544875974176314,moveis_decoracao,1
4e480a424e38883406d8b1c35f15b749,ouro preto,MG,101fa9bbc869f267953a48b0f659dc62,2018-06-15 09:53:02,1,78efe838c04bbc568be034082200ac20,99.9,8605482b9bd2fc682c37958c5bb368c8,5,-20.3854411357262,-43.504436661117175,moveis_decoracao,1
0c8211ae93a1392896f80bf97ac79163,nova serrana,MG,a196d7c6ecd939360a6dfbee0ebacadb,2018-02-14 20:06:59,1,78efe838c04bbc568be034082200ac20,99.9,3d60b0c562ba185477f752242cd6ac47,4,-19.876472947561613,-44.98357287561409,moveis_decoracao,1
44132e7916e05d731a6e73ee520262f1,sao jose dos pinhais,PR,c161187ab4f2133d752f8a028b51f74e,2018-08-06 19:48:32,1,78efe838c04bbc568be034082200ac20,70.0,77653de4932997d862cfd01aab385427,4,-25.50633870024241,-49.1660246426511,artes,1
44132e7916e05d731a6e73ee520262f1,sao jose dos pinhais,PR,c161187ab4f2133d752f8a028b51f74e,2018-08-06 19:48:32,1,78efe838c04bbc568be034082200ac20,70.0,77653de4932997d862cfd01aab385427,4,-25.50633870024241,-49.1660246426511,moveis_decoracao,1
44132e7916e05d731a6e73ee520262f1,sao jose dos pinhais,PR,c161187ab4f2133d752f8a028b51f74e,2018-08-06 19:48:32,2,4fe644d766c7566dbc46fb851363cb3b,69.99,77653de4932997d862cfd01aab385427,4,-25.50633870024241,-49.1660246426511,artes,1
44132e7916e05d731a6e73ee520262f1,sao jose dos pinhais,PR,c161187ab4f2133d752f8a028b51f74e,2018-08-06 19:48:32,2,4fe644d766c7566dbc46fb851363cb3b,69.99,77653de4932997d862cfd01aab385427,4,-25.50633870024241,-49.1660246426511,moveis_decoracao,1
5a771152dd93d31af819d708942afec6,sao jose,SC,694630e7a7713c116a9b7f0ba3377382,2018-04-09 13:56:45,1,78efe838c04bbc568be034082200ac20,99.9,1d2006b3b052bf9f874e7417a8dfbd87,5,-27.594644073237234,-48.607580688601004,moveis_decoracao,1
cca8e8cf66f7fb6cd5c7a6ca5e0f9149,pedreira,SP,d2f6de2ff8b1a8a061b5e9af878ca86d,2018-01-31 13:16:54,1,78efe838c04bbc568be034082200ac20,99.9,c0c6b2bcaafa49aca9380664346dee49,5,-22.741929359485553,-46.8912819657024,moveis_decoracao,1
4d602a31ac00fbf8a19eaec3d2dbd763,sao paulo,SP,1422538d5efc818dc7eca4d0b6eb58a7,2018-06-03 19:06:21,1,78efe838c04bbc568be034082200ac20,99.9,1f5b668a48219fe5b6ab53203ca4edb3,5,-23.56023382015691,-46.49184267193725,moveis_decoracao,1
62f020e3bc3bc2b3d02034b967456799,taubate,SP,e6b1546a7ed77ba5ca2c2077aafd3c97,2018-06-08 19:09:59,1,78efe838c04bbc568be034082200ac20,99.9,bd59d767a308e2a99679da8ddc7cf280,5,-23.03726645918913,-45.58545596615613,moveis_decoracao,1
360fe62c01314738c3a169f57bf3a638,rio de janeiro,RJ,9c867ee818c84d2be46a83abbfb13004,2018-01-14 12:19:00,1,78efe838c04bbc568be034082200ac20,99.9,d3b385f71e943b67f7479fa25a436911,5,-22.988837782492272,-43.32183956007147,moveis_decoracao,1
8223cced69cfc254c7f0946a0c08d6d5,dourados,MS,e2331d349b7b06c4d722196ca3cdb096,2018-05-08 17:10:08,1,78efe838c04bbc568be034082200ac20,99.9,b6972711e1b45ed351176d68fe8ca3b8,5,-22.216985752465447,-54.814577080418736,moveis_decoracao,1
59ab821cf1dbb82c79fac9fd2cec1f6e,rio de janeiro,RJ,acbb76e6b32badc4a60b1262b6a34c81,2018-05-11 11:16:01,1,78efe838c04bbc568be034082200ac20,99.9,64a9dde7d32b82c4fee2d893e790ad3f,3,-22.866294603670102,-43.273385581453105,moveis_decoracao,1
69ac5f3d593857624021f06cabfa584e,formiga,MG,741be6dc102de903336e1a6acb2c44e8,2018-02-19 17:46:18,1,78efe838c04bbc568be034082200ac20,99.9,5bec818efa7b422557d8c603e01dd680,5,-20.462097745702888,-45.43755883640269,moveis_decoracao,1
06fd550709e851b276dc96774077fa0f,contagem,MG,4887f9be54f6d2f1df67e5f7ca46216b,2018-05-22 23:14:30,1,78efe838c04bbc568be034082200ac20,99.9,b70bdc08f1b26bb7fc113e03bbc636b1,5,-19.97129394954205,-44.02628906349886,moveis_decoracao,1
3b50ec863517ca1ed754cfd466fde4cf,belo horizonte,MG,91efb21be6a9b69ab5e7f13f7dd74b3a,2018-06-27 13:14:27,1,78efe838c04bbc568be034082200ac20,99.9,4a30776976e4d9a4ff464f78222b8184,1,-19.95310037433486,-43.99553364187501,moveis_decoracao,1
e2bdb59e52b9c278e2e0a651c4f40ae6,piracicaba,SP,5ce9fc801207a16522d494fcdc8e9dd6,2018-08-09 14:38:07,1,78efe838c04bbc568be034082200ac20,99.9,5797a094c7d4919898f35c8667743efd,5,-22.743485454353905,-47.62531239549318,moveis_decoracao,1
da19a1e67956c7e774d47585e772b89d,carambei,PR,a593e3fb1608a34cd19aabbebc709931,2018-07-08 21:56:35,1,78efe838c04bbc568be034082200ac20,99.9,47a3f9be9b3e338701b5ff237ca034f2,4,-24.952489273953393,-50.12106934691222,moveis_decoracao,1
12c0343740ea01133f44fe7593e30e09,joinville,SC,214ee2e6750c4a27ac6121b731034858,2018-07-19 15:00:52,1,78efe838c04bbc568be034082200ac20,69.9,91e9ba3a3c2bba171855be7621c90d5b,5,-26.238797623088487,-48.83314823244274,moveis_decoracao,1
80f3395a6ea10e0c83ba9ee52ca25086,ribeirao preto,SP,40dea8151a4bad08c633c2a80251b8cb,2018-08-23 08:59:28,1,78efe838c04bbc568be034082200ac20,99.9,2198fc69fc933e751f2157e8982aed01,5,-21.163222928792692,-47.83514559914115,moveis_decoracao,1
55ca0a4d904df9708853ea6231f68a26,sao jose dos campos,SP,674dc699bdf7b477fcf8efa0b898802a,2018-05-20 01:08:53,1,78efe838c04bbc568be034082200ac20,99.9,a3350b9baa65a3fd53f9f73347f672d4,3,-23.19377919677997,-45.783871438802,moveis_decoracao,1
9e83d47684eb1a58b1c31830f5de10ac,pedra azul,MG,b2997e1d7061605e9285496c581d1fbd,2018-07-30 09:08:06,1,78efe838c04bbc568be034082200ac20,70.0,e286c9d6b0fdb46914dad07fa23fdcf3,5,-16.002367333906363,-41.27737405304014,moveis_decoracao,1
16a0ebe9c904c1ac4d2787699057b05c,guaxupe,MG,bdbe0f3ee1e78fdf85d1a60f200f411c,2018-01-22 18:04:36,1,78efe838c04bbc568be034082200ac20,99.9,e81577e8e4c1a30c9c5628bd71959eda,5,-21.297495080212354,-46.707257813347596,moveis_decoracao,1
9711ec758b9270ff19adfc9bec1b4a09,jacarezinho,PR,aeffea2c78ec9b15d6cd7478c9072c07,2018-02-11 16:11:04,1,78efe838c04bbc568be034082200ac20,99.9,ebb4b8ac707740494948ecdcc7f2c42d,5,-23.161487020474482,-49.98395788527748,moveis_decoracao,1
8a20a3e68f8e26baa65f5abcb6c84c8b,amapora,PR,d8b967bf1145baa8c3c10377cc05d83b,2018-04-30 18:04:32,1,78efe838c04bbc568be034082200ac20,99.9,49abfd3056b0ced0779f08226dd29dd8,4,-23.097108273559442,-52.788493156837504,moveis_decoracao,1
3acc86f77a1528b4b99649c2c83c1eae,altonia,PR,b6ee8fd94e6974591db72e75b17b2170,2018-03-06 19:06:13,1,78efe838c04bbc568be034082200ac20,99.9,47fa745da38456df1e2195e3d8c5830b,5,-23.88062944447985,-53.88795749988049,moveis_decoracao,1
a92a310a3d6670dd78d7cb9eafa760be,juquitiba,SP,0b8bb51ed8b0431e4783fde5550895c2,2018-03-04 21:52:32,1,78efe838c04bbc568be034082200ac20,99.9,96c909fa8b1b1c09f17a00d4c7143146,5,-23.941258292936364,-47.065904192054504,moveis_decoracao,1
a44bb60365aab78ba7e9832e5db51cca,itapecerica da serra,SP,5d7d6a724c54a6c3e45794d139f503a6,2018-01-10 16:14:59,1,78efe838c04bbc568be034082200ac20,99.9,fb6a7cc41ec98054797564b370dbac15,5,-23.719966860589558,-46.86151250683588,moveis_decoracao,1
2cf6a6d8a9ee70f8692a9afb7ad22340,curitiba,PR,ffe0d6b7d4772a7380978ef7f0885b89,2018-07-24 21:58:04,1,78efe838c04bbc568be034082200ac20,70.0,027011a097af2b7cbd1de0a5d23a98f9,5,-25.38761670384909,-49.197277822926864,moveis_decoracao,1
39ad34e24c3890ee0c10160c95bc817b,rio das ostras,RJ,6f111f43dfff02f385ba9cd22c75637c,2018-02-04 10:27:37,1,78efe838c04bbc568be034082200ac20,99.9,39eae4e2f68cb0de2b2181889beefad9,5,-22.50781527221696,-41.92996325181007,moveis_decoracao,1
1c90d2c27dabbe23f3e469b3776499be,itu,SP,2bba38e2a9893d1126b133f189ee66f3,2017-11-26 18:51:19,1,78efe838c04bbc568be034082200ac20,99.9,e6acde707b2ae2f44e09e76d211f76b9,5,-23.28097786984237,-47.28481427906979,moveis_decoracao,1
45ce42e689bdb0412c09886deb96fd53,taboao da serra,SP,ec6ae689bec92fef124043f61f553778,2018-07-01 15:04:15,1,78efe838c04bbc568be034082200ac20,99.9,caa952145108d48cac66d1a700a77dc6,4,-23.62516519307262,-46.79014872401623,moveis_decoracao,1
4c188e7804452934753b45b54f5d2bb0,vitoria da conquista,BA,21c03a286e71d3afc682942e4c8eb2bf,2018-01-06 12:38:44,1,78efe838c04bbc568be034082200ac20,99.9,85dd73888edd0536e8f8700487955318,5,-14.88271896390249,-40.83433856891383,moveis_decoracao,1
e1a40f4760020a947e78d81935ffb882,belo horizonte,MG,9ae510d02fa72c4de7358dac28ee5eea,2018-03-25 22:31:44,1,78efe838c04bbc568be034082200ac20,99.9,66b3a96fb4eea12800ac8ea82b0dee5d,5,-19.892914931444405,-43.94164007467242,moveis_decoracao,1
2302f96d8d2dae4878949f1ec805dbf3,sao paulo,SP,fceffa5aa5435f18bb997278808e5915,2018-05-27 13:06:58,1,78efe838c04bbc568be034082200ac20,99.9,8f9b453d2d664354cbacaadce10b334f,5,-23.604758999999994,-46.67024250000001,moveis_decoracao,1
c925aa23b9b1aefbe9df7f7deaae7715,foz do iguacu,PR,944f138622bd3f426cb3c1588035ce87,2018-05-24 19:50:48,1,78efe838c04bbc568be034082200ac20,99.9,dd3ed7910aad642153fae5660e999209,5,-25.493560273242625,-54.559252999588935,moveis_decoracao,1
f9ea6c1cf8a5cd9460daa137454b73b4,sao jose do rio preto,SP,a9850ce15ae344ed38a260105a67e118,2018-04-22 20:43:00,1,78efe838c04bbc568be034082200ac20,99.9,a91b7b7a996f7d33d0695782817f035e,4,-20.812967866727316,-49.379879931894045,moveis_decoracao,2
f9ea6c1cf8a5cd9460daa137454b73b4,sao jose do rio preto,SP,a9850ce15ae344ed38a260105a67e118,2018-04-22 20:43:00,2,78efe838c04bbc568be034082200ac20,99.9,a91b7b7a996f7d33d0695782817f035e,4,-20.812967866727316,-49.379879931894045,moveis_decoracao,2
69d234580e4fbeba8ccea6b767bb801a,sao paulo,SP,7fb13f3c0c951e4748c6962b0261a580,2018-02-23 12:54:27,1,78efe838c04bbc568be034082200ac20,99.9,4cd104fa74d8ff3d47beff34469f7d1e,5,-23.584732611509963,-46.74430086420939,moveis_decoracao,1
b2d778e324f021656721b4dc70a2535e,eusebio,CE,5fec12a84d3f675f75b06a54e54d6b04,2018-02-02 12:06:06,2,78efe838c04bbc568be034082200ac20,99.9,22254f62ab89bce7b203e987c3363a2f,1,-3.88331727558969,-38.45111163038303,moveis_decoracao,2
b2d778e324f021656721b4dc70a2535e,eusebio,CE,5fec12a84d3f675f75b06a54e54d6b04,2018-02-02 12:06:06,1,a00d11a2119bd70d658fc7cdcf1f59d3,99.9,22254f62ab89bce7b203e987c3363a2f,1,-3.88331727558969,-38.45111163038303,moveis_decoracao,2
d6aefbc6bf6edba918286a439cf1f266,tres passos,RS,67fe9f5e9c411829a15755a4c9f56663,2018-06-05 15:56:49,1,78efe838c04bbc568be034082200ac20,99.9,f601569aa4d4fa979f4c228b576422a7,5,-27.457135549027814,-53.91775897631491,moveis_decoracao,1
dc2f72aa54d226854638f17fa00fc400,sao paulo,SP,acf86ff3bc3c19b1f61c2b0c04c60d52,2018-03-31 21:36:25,1,78efe838c04bbc568be034082200ac20,99.9,203327f01c40e005e311ab44cf58244f,5,-23.581178402995,-46.763808642795325,moveis_decoracao,1
5a005adfaf9aea0f82402b36e5b98849,brasilia,DF,ed9ceca077a878e3e694eb3d642862bf,2018-03-25 17:16:29,1,78efe838c04bbc568be034082200ac20,99.9,df723c7a62a3bf21b4b430ddb77ece79,3,-15.810588397796387,-48.07766403352334,moveis_decoracao,1
cff3017a38470298f6dce1e9d75f759a,piracicaba,SP,a3fc2463aca2385a6ca276ee9d42e0bd,2018-08-18 11:33:41,1,78efe838c04bbc568be034082200ac20,99.9,4f681a266d3fb1b425f93030d1dcd3e6,5,-22.73568920206009,-47.667087504010716,moveis_decoracao,1
2eaeb6168aa4c77889f4c92ff8923288,marilia,SP,93cae495607755570d9b4c0c2d0474e6,2018-03-18 09:34:24,1,78efe838c04bbc568be034082200ac20,99.9,0dd7dde5ee94fba8b1fb6070d462ac0f,5,-22.23447942215357,-49.974928365803024,moveis_decoracao,1
0a69d4359bde323285be50f7b6e0bda0,salvador,BA,d2bff83d0edaab294ac81f5a5dae2a08,2018-01-13 20:56:49,1,78efe838c04bbc568be034082200ac20,99.9,5f5c5b7f5392f517068840ffd45f57c5,4,-12.952315037191978,-38.35587941548849,moveis_decoracao,1
1502f86a2eb8886ffb134f252debcae7,rio de janeiro,RJ,7c38ea034c4ae0b36dae03dac6c6a7a7,2018-08-07 19:16:50,1,78efe838c04bbc568be034082200ac20,74.9,2400152b0481989350903efffde40414,5,-22.91316975852623,-43.191122977927215,moveis_decoracao,1
1f95dbeb011c0827bbf2e50fa4624ce3,farroupilha,RS,822066c3837de6884cb8e17d97282692,2018-01-16 13:55:23,1,78efe838c04bbc568be034082200ac20,99.9,1f007c3c70fa2057cfd2e4078124325c,5,-29.23463485529904,-51.33010387837361,moveis_decoracao,1
e7db0530c950f6fb98b796f0d2ff3757,sao jose dos campos,SP,61c3073707aeb0763a028eb696085d02,2018-07-02 18:10:34,1,78efe838c04bbc568be034082200ac20,99.9,2f2bed79f6ac7f4d2857d803f5dc71fb,5,-23.17358352178432,-45.84484411809683,moveis_decoracao,1
a1611dd64649bd4c6ff1de1b4b5fdfd7,dracena,SP,19cfcf45fc399af9d3e9d1d98638997b,2017-12-18 13:51:17,1,78efe838c04bbc568be034082200ac20,99.9,1cb9f4343412b6fa9f2259151ccafbaa,4,-21.491424091384424,-51.54128998813147,moveis_decoracao,1
587548be8f9917924b6422e287eb4094,cotia,SP,464324a0ca5b6a5b1448b02f24e588ce,2018-03-05 15:39:06,2,78efe838c04bbc568be034082200ac20,99.9,9a2cd716541ca35682a526a6a7632239,2,-23.59300598405365,-46.83429679955288,moveis_decoracao,2
587548be8f9917924b6422e287eb4094,cotia,SP,464324a0ca5b6a5b1448b02f24e588ce,2018-03-05 15:39:06,1,f2e9bb932d99a4a695ebde162fcefc35,109.0,9a2cd716541ca35682a526a6a7632239,2,-23.59300598405365,-46.83429679955288,moveis_decoracao,2
afe9d1eb2f0425d550f70c13702bcd85,douradina,PR,ac1b68b95d77ee9e9c3829ed43f2ccbb,2018-07-06 23:39:43,1,78efe838c04bbc568be034082200ac20,99.9,d02f2a3a93a12aa1d09d2a8017bebbb8,4,-23.381523858372674,-53.29158535512677,moveis_decoracao,1
6adf93122eaabf5504841bbaaa04b99c,sao paulo,SP,9ecc5c5e57de488331667fb8c3d5f689,2018-06-18 19:09:58,1,78efe838c04bbc568be034082200ac20,99.9,d1b2891a169660817e3abd64fdca9ab5,5,-23.590899607276782,-46.675222989035724,moveis_decoracao,1
7d6047a2b5afaf9eae77000b7d995c67,sao paulo,SP,9b9a93b680e8808b6da57cbfb3836a62,2018-04-16 00:08:30,1,78efe838c04bbc568be034082200ac20,99.9,d1b70991c3ff43b047b460654eba70fa,5,-23.575280949873317,-46.49019794412511,moveis_decoracao,1
82b7c4df2bd96eb13d394cf8d77c98fd,rio de janeiro,RJ,eeee6bb6362f699fcaf86a54fe701c7d,2018-04-11 12:17:31,1,78efe838c04bbc568be034082200ac20,99.9,2e99c515fa63373fcb9e14d40b7a90dd,5,-22.912000889260764,-43.377521406053425,moveis_decoracao,1
05d4a0e7365cf69b45d3af76236ca83a,varzea grande,MT,37f6e52783daf8d5b0a61c8876c23b38,2018-02-19 12:08:24,1,78efe838c04bbc568be034082200ac20,99.9,ea85116bad3af1f1e2a0656254c7ffca,5,-15.660456834216854,-56.138293410423834,moveis_decoracao,1
9c85c926b9f69f10c63f5754d44e9858,monte alto,SP,9bf45ecba71e9121235e583ec3b824a3,2018-08-13 19:34:23,1,78efe838c04bbc568be034082200ac20,70.0,6092fcf74f32ca52bb7424cf561e7762,5,-21.27815530998053,-48.4924471742399,moveis_decoracao,1
88519723851a4b27f5d0b3c2a32011a2,carapicuiba,SP,c2fcd45c45821d4cf9f5bb48db015eff,2018-04-06 13:33:44,1,78efe838c04bbc568be034082200ac20,99.9,49df9d64f0da50c78447a2c80c71980b,5,-23.543122861236267,-46.84922833692442,moveis_decoracao,1
d7d3d2109d4c4585689cde97ee05b35f,teresopolis,RJ,24149968adb7fe949f6d6dec53cae0a8,2018-07-31 18:12:06,1,78efe838c04bbc568be034082200ac20,70.0,18b52350fc83fb23d5e5ac88a6697879,5,-22.410581609872605,-42.966265580725526,moveis_decoracao,1
a68021e914fb8d880d37ebdf4a8730a3,santa maria,RS,f9eacd2ae0f04cdb4b243d2582392d35,2018-05-05 17:57:22,1,78efe838c04bbc568be034082200ac20,99.9,f72c0c312f365665d99807292fc6a24f,5,-29.688168237578637,-53.81752310975829,moveis_decoracao,1
7cc610197fd6f4bd89859dc4394ec58d,itobi,SP,ae335d085e7fb3e027c0943975a839fc,2018-07-23 19:28:32,1,78efe838c04bbc568be034082200ac20,70.0,82c3d571423925e294233685ab48eb0b,5,-21.735670326214176,-46.96857014563175,moveis_decoracao,1
1c2b086c2496c2b728a636ea3bc95343,joinville,SC,44b375387a05e8986651d12dd9fde735,2018-06-30 10:06:02,1,78efe838c04bbc568be034082200ac20,99.9,dc954adbe1f4fc97b6cbe0072f393051,5,-26.333892503462447,-48.84591111226846,moveis_decoracao,1
2f5fe9b49239ed5ec7a8b034c0b6534e,paranagua,PR,a1b053243040fd2e535ffcd708f05c7f,2017-12-31 11:52:23,1,78efe838c04bbc568be034082200ac20,99.9,5b21e76897a1c1e8ffbf6ba9f369fadc,4,-25.51644476890165,-48.5030274523446,moveis_decoracao,1
7179ad6de5e40459dd6d155a79e0a8b8,sao paulo,SP,d9315248c746eae375828adf46ae3eca,2018-05-18 18:01:10,1,78efe838c04bbc568be034082200ac20,99.9,8334ef85e132fd66d239439ed081266c,5,-23.473255976686477,-46.70433327407813,moveis_decoracao,1
d505b6bbae97b47f93e1ce62d3dcd07c,nova iguacu,RJ,49584997a9180455c41d4c70ebaac683,2018-03-01 23:56:42,1,78efe838c04bbc568be034082200ac20,99.9,d35227505c28e560c3aabfe9c6427236,1,-22.75601209256217,-43.51904554671209,moveis_decoracao,1
44b6addf8f0742048c4bd7a8797db51f,montenegro,RS,3822b25e989ac059e7f232678b67a465,2018-07-24 08:01:33,1,78efe838c04bbc568be034082200ac20,70.0,9846ea60fea5dd117221c609f12f3202,5,-29.684903286269,-51.452243915723656,moveis_decoracao,1
4956cc7d2a22d2682898172e9a1835a4,carapicuiba,SP,3399c5d5b9eb49b7a4ec11d7c39a8aec,2018-04-10 20:26:03,1,78efe838c04bbc568be034082200ac20,99.9,8b01a2e45747aad2444153c75eafd4d9,5,-23.553905436995077,-46.84128267846766,moveis_decoracao,1
c9810bad88b465541f86a819e6c17b69,sao lourenco do oeste,SC,43698bc1371b83853814e6a6afcc89f8,2018-03-20 15:06:42,1,78efe838c04bbc568be034082200ac20,99.9,c49f8ca7175b35fe1c3eb029cd4ed6b9,5,-26.357104964247853,-52.84773683705285,moveis_decoracao,1
30cd9604d86792fe87c3b31912998520,sao paulo,SP,fe64170e936bc5f6a6a41def260984b9,2018-04-28 17:18:07,2,78efe838c04bbc568be034082200ac20,99.9,0cec8ad42f36858f8e25e82de06a203a,4,-23.565719357204667,-46.684737879825704,cama_mesa_banho,1
30cd9604d86792fe87c3b31912998520,sao paulo,SP,fe64170e936bc5f6a6a41def260984b9,2018-04-28 17:18:07,2,78efe838c04bbc568be034082200ac20,99.9,0cec8ad42f36858f8e25e82de06a203a,4,-23.565719357204667,-46.684737879825704,moveis_decoracao,1
30cd9604d86792fe87c3b31912998520,sao paulo,SP,fe64170e936bc5f6a6a41def260984b9,2018-04-28 17:18:07,1,81b6c7c058add831803fcbba6dcc1df2,99.9,0cec8ad42f36858f8e25e82de06a203a,4,-23.565719357204667,-46.684737879825704,cama_mesa_banho,1
30cd9604d86792fe87c3b31912998520,sao paulo,SP,fe64170e936bc5f6a6a41def260984b9,2018-04-28 17:18:07,1,81b6c7c058add831803fcbba6dcc1df2,99.9,0cec8ad42f36858f8e25e82de06a203a,4,-23.565719357204667,-46.684737879825704,moveis_decoracao,1
43eebd9e1ce82376253188e323775296,ituiutaba,MG,8adc7186d6a1385039f0717a994aaae6,2018-04-20 11:35:24,1,78efe838c04bbc568be034082200ac20,99.9,769cf3da0d609d571f0ede89ff1a1c94,5,-18.973635619135326,-49.46371982999242,moveis_decoracao,1
a32113d5ae0d8889966b8fdc44d37fd5,felisburgo,MG,a2c188c4797a746ba81a77bd44c07aae,2018-01-17 12:27:16,1,78efe838c04bbc568be034082200ac20,99.9,43900304ea55708e31737c5950efae90,5,-16.64105874616826,-40.76058391412651,moveis_decoracao,1
55a52a925384404b4e57b82938bf6062,mogi das cruzes,SP,eb6b32a82d2459d0ce7f2089f9eba0f2,2018-04-29 21:49:07,1,78efe838c04bbc568be034082200ac20,99.9,2068f01ae18501355f81fa4d84df4ffe,5,-23.51992999904818,-46.18454438599977,moveis_decoracao,1
65f2c5942e588caf6ecc68c778a0ebf7,rio de janeiro,RJ,1607aa1dabb96d104838f96ccb72f225,2018-03-06 08:37:03,1,78efe838c04bbc568be034082200ac20,99.9,2655c113c4665ba2df76363234ba8f8d,1,-22.89469168887411,-43.236704017889174,moveis_decoracao,1
9fb35e4ed6f0a14a4977cd9aea4042bb,montes claros,MG,8428e578bb1cf839ae26a6b7615502b9,2017-11-27 17:23:20,1,6b874ff4c71d18e91079b40396bf176a,25.3,28bbb42c128a4a89860906d48722cede,5,-16.715818042646767,-43.87748013593539,automotivo,1
0356877f77d9b7556e70917d90bd59f1,santo andre,SP,b917f95342573a0732028ba916ea92ab,2018-03-26 12:35:07,1,6b874ff4c71d18e91079b40396bf176a,25.3,6f092dab19c3c7c0371fba651deb2a44,5,-23.63418981764676,-46.544875974176314,automotivo,1
29d20cf2880f1d5a967c4425fc3ccfe1,guarulhos,SP,99ece48d14ba148681f7f0db03a9e238,2018-03-10 10:59:25,1,6b874ff4c71d18e91079b40396bf176a,25.3,8689e04d72c77ee2ff036a9ef5aa898b,5,-23.441588266720533,-46.522108985429035,automotivo,1
778593c83b75c7519025543b07a41073,teofilo otoni,MG,886090ba53919a880e66ccba31eb74ee,2017-10-16 15:21:10,1,6b874ff4c71d18e91079b40396bf176a,25.3,ffc7f65cce6ee4435163a575704232ee,5,-17.839687656966465,-41.510002453323395,automotivo,1
5aa9e4fdd4dfd20959cad2d772509598,rio de janeiro,RJ,f86c5ed7048ac10eb88ec21c00f71892,2018-02-07 11:36:42,1,632ba0c3ace598871c24c49380796d57,129.9,bd347ad4af032e1458669bc899aefd20,5,-22.911049781291485,-43.186872777540586,informatica_acessorios,1
c129e739a0d59a850211e19070d9419e,rio de janeiro,RJ,27a8554e167c321378d1c899a0b8b8f6,2018-01-22 17:31:43,1,632ba0c3ace598871c24c49380796d57,129.9,c1c6ad479913c4a9d515a458db4ce46c,1,-22.972954717953066,-43.392388484138706,informatica_acessorios,1
acb64e2599b38fcae12dbfd6bc07859b,itapira,SP,972744bcdd80014057492bbab6b4e06f,2018-01-03 09:40:47,1,632ba0c3ace598871c24c49380796d57,129.9,daf8267d6f553e78627e88b2dc240a4b,5,-22.458226718816885,-46.78645355352344,informatica_acessorios,1
c9465587fb93f63f3681f9fc89ae37f8,campos do jordao,SP,876b3ca0fca7f369345f61f3f526a5c4,2018-02-01 12:12:38,1,632ba0c3ace598871c24c49380796d57,129.9,02a99f5eccdda4d9d19a57e2b383414e,5,-22.74322951205864,-45.59893325104658,informatica_acessorios,1
57a6d988264f01e13ed9338441859fc6,dom aquino,MT,fe5fdaa8ac452f9ef81b55b329d3b087,2017-11-12 20:31:20,1,632ba0c3ace598871c24c49380796d57,129.9,06b03de0922f762f4f3ed71fbdf9c628,5,-15.810280944856215,-54.924114890668186,informatica_acessorios,1
5d1fe77e26f6db69ffcc7075b48d966a,niteroi,RJ,9af75af133e554afc286c77a5684cd6d,2018-01-10 10:27:04,1,632ba0c3ace598871c24c49380796d57,129.9,45c9f95f266f74fd2f7c30bc824a39a4,1,-22.88967135443471,-43.119700376074775,informatica_acessorios,1
5d520b662ecaa32220bf59704b797c67,americana,SP,0db84a5169c0effbdd6695e38e354ada,2018-02-27 18:58:14,1,632ba0c3ace598871c24c49380796d57,129.9,66b6746b486e639f7865f9c12b5e9060,5,-22.774637204435876,-47.34731871533582,informatica_acessorios,1
5f84815b21791e9b328de9cbc5d74bd8,sorocaba,SP,4f3fee0fa922d1575e5b0e5f6a160629,2017-07-17 14:20:37,1,632ba0c3ace598871c24c49380796d57,129.9,02d72157d0236f2bc5fa52c2ba518d41,5,-23.506715295025717,-47.46205879655492,informatica_acessorios,1
15cd9ed63dd1fbd1c1b70317655a94a4,arroio do sal,RS,1269b55cefdede474b06de78ff45d1f5,2018-03-06 09:50:21,1,632ba0c3ace598871c24c49380796d57,129.9,39597da9567084c238b196dee854d179,3,-29.535659999999947,-49.876359999999984,informatica_acessorios,1
7ae53acddb48d2370fb26d3a244a0d6a,osasco,SP,30302e4257bbc6a219101fa79c37c1f1,2018-04-11 16:50:30,1,632ba0c3ace598871c24c49380796d57,129.9,dcccc3572f5ae942a126c9f79375eef9,3,-23.50546436912124,-46.800380708984974,informatica_acessorios,1
b2d1536598b73a9abd18e0d75d92f0a3,lencois paulista,SP,83d8f70418eefd96f37b483dff430305,2017-09-09 09:54:57,1,3fc00af0f0a8d4ac2933d3900416c977,99.0,ba6eba3dfa6aca19793c270c2a349ea0,4,-22.60155102889841,-48.8006024039304,climatizacao,1
ae5889fe15b781429771c232b8b81d59,gramado,RS,6ed6b87e6f8afe27921e761104771bbd,2018-05-07 20:07:28,1,3fc00af0f0a8d4ac2933d3900416c977,99.0,a337c1c77bc931f533f91cecb8b41d78,5,-29.380712331897826,-50.871558955055285,climatizacao,1
31e34659933a639fd1d656924e76cd35,manhuacu,MG,bd6a4be98625711812fdabccdcdff8ca,2018-04-27 15:27:15,1,3fc00af0f0a8d4ac2933d3900416c977,99.0,220e2317b1c6943f1773c06afd1320fb,5,-20.260437420021738,-42.02761890432513,climatizacao,1
14e39b4c856a96807b70e37b4fe8980f,fervedouro,MG,df9713218005fcf6790bd6f58d395bac,2017-06-10 16:37:49,1,3fc00af0f0a8d4ac2933d3900416c977,99.99,bdc080d734f6f81c78156d5cd486217a,3,-20.72317523985613,-42.42453928812403,climatizacao,1
7aa6b791c1e47633122b949ed9d51b83,pelotas,RS,2e1b96bb2d8b0ca7e4a6c3d0c15d68a3,2018-07-01 16:31:48,1,3fc00af0f0a8d4ac2933d3900416c977,99.0,786a501924bcc861271dd15e08bf562f,5,-31.7486360738357,-52.31075135887811,climatizacao,1
002d597546b2cf44428232c9f237f873,jundiai,SP,b7daca2d24a93ab9351485e0bdcbb7e6,2018-07-22 09:29:19,1,3fc00af0f0a8d4ac2933d3900416c977,99.0,6286461325b33ea3d84b5c3d244cb100,2,-23.194483301630978,-46.90315698228236,climatizacao,1
9ec9cb2a44ecdd3fd0c412cb3d331c03,teresopolis,RJ,a251945eec0cc0482667c716eab7c09c,2018-07-23 11:56:55,1,3fc00af0f0a8d4ac2933d3900416c977,99.0,6c615de7a98a89f63e18237b7699f8ea,5,-22.284685769135013,-42.93026073612639,climatizacao,1
899cdc1395d9d42d165d8935d7bbc7f6,bom jesus do itabapoana,RJ,f36770932c1481e3aab9eced257e50b6,2018-05-23 17:35:53,1,3fc00af0f0a8d4ac2933d3900416c977,99.0,d73651847e3012fff70ab0a92d931173,5,-21.13752949188101,-41.67498147024267,climatizacao,1
eabebad39a88bb6f5b52376faec28612,sao paulo,SP,852d2f4d37773bcbc21c8e09a05a4ea5,2018-03-07 15:57:14,1,33f17ed3c6906f7a7ae17a0843536db4,27.99,360df94a293698ff75fcd3779bcca3bd,3,-23.62796148183387,-46.71834840596258,telefonia,1
78ff015a8c2dee2e054b33ac52bac13f,monte siao,MG,610d2254a191363a1f87185789c63231,2018-04-30 00:58:50,1,33f17ed3c6906f7a7ae17a0843536db4,27.99,efff0f88520bffc0ff1a593f252a76fb,4,-22.43214866339335,-46.582346221733424,telefonia,1
66dc7ddbac62bcf0886576a7d05f9606,niteroi,RJ,1bdd4c66aa68cf72d2fc25b9f9e4bb48,2017-12-06 17:42:49,1,33f17ed3c6906f7a7ae17a0843536db4,27.99,899790c616533ff6c6ed2427b8891546,5,-22.901735951206216,-43.12604523523796,telefonia,1
4e0124b873e33a0564660f4a619d9b52,sao bernardo do campo,SP,ed212234a6a31d41245df34b141e1830,2017-11-17 13:00:16,1,33f17ed3c6906f7a7ae17a0843536db4,27.99,8b4aaeb132cf93a714351d1104c332f5,4,-23.660901052455436,-46.59623298946842,telefonia,1
eac5ce6f02a3490935333a3b472dd778,sao paulo,SP,a1e8024052c308f63ca46229c6427598,2018-04-01 16:39:09,1,33f17ed3c6906f7a7ae17a0843536db4,27.99,230fbeef37e94e07408f949ad8c863eb,5,-23.646846698309172,-46.706346126002686,telefonia,1
0c7c2c788608c5da62c9d1d0cfd7580e,belo horizonte,MG,2d2d4e2aa4df8b00e751162c05be40e7,2017-11-08 14:05:31,1,33f17ed3c6906f7a7ae17a0843536db4,27.99,4b73c06bc4cdb8cfbb49e8e7cdf5e1cd,5,-19.93159240521669,-43.95308864544972,telefonia,1
ae341c5b6723efe9e02c3b351028b644,brasilia,DF,3be8a1f84b766b7847d066e09de464c7,2018-01-25 14:50:14,1,33f17ed3c6906f7a7ae17a0843536db4,27.99,da3f6dd86656feeb6f06c76d0d055f72,4,-15.837930871095484,-48.05668904267,telefonia,1
1adbc5f1d585ff6b016adb7627272d0f,sao paulo,SP,c84b66bfc6edd6b56325d5342ec421a0,2018-01-30 15:26:08,1,33f17ed3c6906f7a7ae17a0843536db4,27.99,a25eabfcba423ad7c8c227c448afef13,5,-23.529597757977967,-46.46082718373821,telefonia,1
df6afdec3d39282bbf6d560f15911d80,canoas,RS,04778abaab7b4bdfb0abb1110f1eba52,2018-05-06 02:07:13,1,33f17ed3c6906f7a7ae17a0843536db4,27.99,ff346ea41982e73474510eadbda3f356,5,-29.90437037607479,-51.20586455649478,telefonia,1
90df085f8a512665dce9ae9e923b0b83,rio de janeiro,RJ,c76b75e541b06461ec9cf363fd962ee3,2018-05-23 15:50:05,1,33f17ed3c6906f7a7ae17a0843536db4,27.99,4a270e937b37be7e5e49ea3a0840ede6,5,-22.92853103882622,-43.1794021767896,telefonia,1
7737d8841ed827cfc36e025cd99b13d1,niteroi,RJ,ce2b74275022f728e4d0c3302e07f13e,2018-05-19 22:28:49,1,33f17ed3c6906f7a7ae17a0843536db4,27.99,de0fd8d15d0a97d047cdf9823027fd71,5,-22.870341000000003,-43.10403075000001,telefonia,1
82dd196b2b5b57785945aa2f471a35f9,santa maria da boa vista,PE,d1f9a1aec23787e664aa0ccd55fe2fd3,2018-07-16 19:19:37,1,33f17ed3c6906f7a7ae17a0843536db4,27.99,8fcfa290784806172f41ec9a6bb2673a,5,-8.797351633535559,-39.82662187111139,telefonia,1
1f1c7bf1c9b041b292af6c1c4470b753,caxias do sul,RS,6c949e670b5d33dc8fb8ad25b6da4860,2018-04-01 18:59:31,1,31cddbc370031fbb839a21441df28015,84.0,bebcbcbcffc758035c3362142f28178e,5,-29.205893514770413,-51.2359675147704,beleza_saude,1
caed95700dcb091eeaac59a97fe0cb17,poa,SP,82ffe097d8ddbf319a523b9bbe7725d5,2018-04-23 01:41:29,1,31cddbc370031fbb839a21441df28015,84.6,a5e94b4fe334ef26682c15d24c847ccf,5,-23.517811546186486,-46.33967851383267,beleza_saude,1
fa8298e3bbe898f427d91871c62ab252,belo horizonte,MG,5859bf190ee8241fc9369a880297ee0e,2018-03-22 17:19:48,1,31cddbc370031fbb839a21441df28015,84.0,38fa4530a74f9f904f792c4073931951,4,-19.944055915075644,-43.93250755847136,beleza_saude,1
39c7cefe1084962c1eee5d5697761e5c,sao paulo,SP,b0562fe8f5e606d4effaea1c3acc8fc9,2018-04-03 16:31:37,1,31cddbc370031fbb839a21441df28015,84.6,5d494c39c851ad7e3e5b655d7f71aa20,5,-23.51182575437129,-46.48996076533555,beleza_saude,1
e9ad9f02bdf9afbb0da8e758d94067a8,sao goncalo,RJ,5c3dddb93a4f011fc1fc4e712b18eb04,2018-04-19 23:24:33,1,31cddbc370031fbb839a21441df28015,84.6,e47e5e172db9e5c894d8504c7dde7d61,5,-22.81207678892397,-43.018739675217425,beleza_saude,1
206f3129c0e4d7d0b9550426023f0a08,piracicaba,SP,eac76692452422620996fe5e1a7f8bb0,2018-01-29 20:32:08,1,98a8c2fa16d7239c606640f5555768e4,129.0,a26dba51ffa3f179bec8862931fafadc,5,-22.681630058283805,-47.66940047155058,ferramentas_jardim,1
2074276f1cbcee59fc01ab7b591d017b,belo horizonte,MG,e0491d5fa20ffe7ac96ccfdb874a8dc1,2017-10-28 22:10:51,1,98a8c2fa16d7239c606640f5555768e4,110.0,106a424480a25b6d951117d7065e29ed,4,-19.82314367927368,-43.978244644091546,ferramentas_jardim,1
b362913ed32818b745caa7396e5fc17b,belo horizonte,MG,722472fb65236469ae8a7934269a980f,2017-07-19 21:31:19,1,98a8c2fa16d7239c606640f5555768e4,99.0,a6701394a00cf127b658a03407ce0649,2,-19.914887482110824,-43.981813529834405,ferramentas_jardim,1
35c202508df32b386d266f1cd73d3bf8,blumenau,SC,2b57a0c3167cad0a95b15e00b748d5ca,2018-07-08 16:16:13,1,98a8c2fa16d7239c606640f5555768e4,159.0,1f772894bba3f62571ac37904bdf1d26,1,-26.791643336317982,-49.08435072405491,ferramentas_jardim,1
89ed25d65f84b1f97909a80ac1676090,sao felix do xingu,PA,67228d3b35b57e5bf9c1437f95652f2c,2018-04-11 10:45:19,1,98a8c2fa16d7239c606640f5555768e4,169.0,9a1eabc5553370c3957522cf8ec9c930,1,-6.635805752808476,-51.97347584677024,ferramentas_jardim,1
fc25e9ad5c4e1fd84faf0f1fadc8a5cf,rio de janeiro,RJ,28d030cdc8a0c663dc60bbe5a730971f,2018-02-04 22:50:32,1,98a8c2fa16d7239c606640f5555768e4,129.0,6a185e8742a6b85ac6826c683fa8b574,1,-22.983458405505147,-43.19984336955392,ferramentas_jardim,1
f94b42a1fbdacb6be65b3f64cd68ce5f,cachoeirinha,RS,31570df15e703d337b7b8a1d1ddcab6b,2017-10-20 14:00:10,1,98a8c2fa16d7239c606640f5555768e4,110.0,beb68a404231ac6bd5d92250edddfafc,5,-29.91836557306762,-51.10041765990425,ferramentas_jardim,1
35a7f7f18808a0d5ca9913a8bc0304c5,sorocaba,SP,51a7d7d26116c0eaee6bb35ea667dfda,2017-04-25 08:12:22,1,98a8c2fa16d7239c606640f5555768e4,84.9,81405cb411490464980cc8bb7204c3bc,5,-23.442207034970284,-47.47853285691621,ferramentas_jardim,1
b903ffc665d9abfd2ceaa052d8da5642,rio de janeiro,RJ,785bfd330f7cc6cfba69cf7ee360fe47,2017-06-03 00:29:40,1,98a8c2fa16d7239c606640f5555768e4,99.0,5686d60506e16fdadff5c1678c086ba8,5,-22.972954717953066,-43.392388484138706,ferramentas_jardim,1
f43c8311767ccd0e12cd41fad287ec60,curitiba,PR,4ceda92a516e1a970460bedc58d3431d,2017-10-26 21:24:31,1,98a8c2fa16d7239c606640f5555768e4,110.0,8c1119ff6a4bcf96eb11e1cbd485a633,4,-25.444388294477463,-49.26748967277396,ferramentas_jardim,1
186d5e15485ff2afa04f02bd00aee4a4,fortaleza,CE,0aed18a03ea2ccdb5981aea3524b304d,2017-09-08 12:16:48,1,98a8c2fa16d7239c606640f5555768e4,109.0,b1b8ed5013ee80279488d05cd327e154,1,-3.840322871775621,-38.52043205245542,ferramentas_jardim,2
186d5e15485ff2afa04f02bd00aee4a4,fortaleza,CE,0aed18a03ea2ccdb5981aea3524b304d,2017-09-08 12:16:48,2,08574b074924071f4e201e151b152b4e,99.0,b1b8ed5013ee80279488d05cd327e154,1,-3.840322871775621,-38.52043205245542,ferramentas_jardim,2
43a137e2ebbc35bf3e7aa0dad8bc0d1a,sapucaia do sul,RS,27996b768ff5774e22bb47c13cb1c55b,2017-06-08 06:46:08,1,98a8c2fa16d7239c606640f5555768e4,99.0,cbb0fefd70a36a407ad501560e36456c,5,-29.828064317856178,-51.149351575104724,ferramentas_jardim,1
6b7d8deb29906a81465a537f41c7705b,carvalhopolis,MG,3e4c2286500a9d3194bd7d92434c8233,2017-10-04 02:29:52,1,98a8c2fa16d7239c606640f5555768e4,110.0,006d91c83696c3868dd24533c65ce0be,5,-21.778112904743363,-45.843511779541785,ferramentas_jardim,1
585efd953bdf0c0feed085f3a757c9d0,rio de janeiro,RJ,5d8d75278e117304f2e8c3df4ce3c41c,2018-04-05 12:28:28,1,98a8c2fa16d7239c606640f5555768e4,129.0,c4c631137005b916f31f8b578de4b0fd,4,-22.91048810407413,-43.172641654740545,ferramentas_jardim,1
5120967d7b95d59569c96049c74b6a32,sao paulo,SP,6cc81d57e84149f55788bccafc8a48d3,2017-09-10 16:01:27,1,98a8c2fa16d7239c606640f5555768e4,109.0,bf701edd4b4e32796ea43783e753b4fc,5,-23.49639056318243,-46.409539049066325,ferramentas_jardim,1
5eb4c61bb8be9ba76f38fb86a416f777,florianopolis,SC,d6ee6e570c72b3abf832d6427e06627e,2017-06-01 19:58:20,1,98a8c2fa16d7239c606640f5555768e4,99.0,fac47507c2ebb1c10fbd28bc5ec8aa9d,2,-27.596760748254447,-48.546734164868106,ferramentas_jardim,1
4f0b5b05dd181055bb1fa47d9290cb60,lencois,BA,8f7176f38b6ac3f5e924b9b05716440c,2017-09-02 15:59:48,1,98a8c2fa16d7239c606640f5555768e4,109.0,c70dbb62625715e1226b383cffc9b90a,5,-12.562912538130126,-41.38878570212739,ferramentas_jardim,2
4f0b5b05dd181055bb1fa47d9290cb60,lencois,BA,8f7176f38b6ac3f5e924b9b05716440c,2017-09-02 15:59:48,2,98a8c2fa16d7239c606640f5555768e4,109.0,c70dbb62625715e1226b383cffc9b90a,5,-12.562912538130126,-41.38878570212739,ferramentas_jardim,2
df7ff7237ff18756a562b2328d7ee071,nova campina,SP,2f000c3fe98bfb40a47105b66f081368,2017-12-14 12:55:12,1,98a8c2fa16d7239c606640f5555768e4,129.0,569cfaae98284da1aa4c3aaf2ed0cdac,4,-24.119387696576535,-48.90249579508141,ferramentas_jardim,1
ae5c099e4280d1e1623790fc42494309,nilopolis,RJ,08d55c0e173bdfa5770a50a253b1810f,2017-06-27 10:44:47,1,98a8c2fa16d7239c606640f5555768e4,99.0,3f4f9a7b2d4edd77f5ed6abff4f3ebb8,4,-22.803918924482346,-43.408463903230206,ferramentas_jardim,1
a85aa0eaabbe195c286dedb52f4c8d21,rio de janeiro,RJ,0d6fbe13e1bee14aa67cfcda25ee1781,2017-07-04 22:57:31,1,98a8c2fa16d7239c606640f5555768e4,99.0,2b380b373fce168296977dad303e3a2f,5,-22.865277877315545,-43.35171679404477,ferramentas_jardim,1
efabb2b271a2d7ced97c99c3cbbe3870,bauru,SP,681fc152c63481373cecdd46e390fe6b,2017-10-09 16:41:37,1,98a8c2fa16d7239c606640f5555768e4,110.0,9d7bdcb3f756c715cfdfa01a99ed608c,5,-22.30426824008879,-49.09427587122736,ferramentas_jardim,1
7b2c888b9cc6cef7b7294d42d1600fc1,baixo guandu,ES,83d67fe6be9a0ed962f9ce12a1accdf3,2017-05-11 17:51:45,1,98a8c2fa16d7239c606640f5555768e4,99.0,d6f1af4fe8233ae70592c154b703cd1a,5,-19.51081114321946,-41.027010153587106,ferramentas_jardim,1
60d825970926bc552c3299d2d1b5041a,nova venecia,ES,e73eff9d5a06990f389e11a7f731af85,2017-05-10 15:44:46,1,98a8c2fa16d7239c606640f5555768e4,99.0,410779f8fb5f0bd2fe624fb9f44bf7ff,1,-18.7024905,-40.39002000000001,ferramentas_jardim,1
e65ce9b007466b457e8b7bc5004b1186,itapeva,MG,dac8bbf73624993402c1e7481bb37ee5,2017-06-06 23:08:04,1,98a8c2fa16d7239c606640f5555768e4,99.0,d3ecaf8994a53008b772f263f5454664,5,-22.76303058509729,-46.231843315288856,ferramentas_jardim,1
9e63980f2ac755983af98be7a236a234,vitoria,ES,d0b446af99e79a960dd8c63777fc65df,2017-10-21 20:21:29,1,98a8c2fa16d7239c606640f5555768e4,110.0,7db4ac893d18be1626019ad703291ddb,5,-20.25003150568415,-40.271887363292855,ferramentas_jardim,1
c43ef016bf2cafe5db5e670dee714ccd,nova iguacu,RJ,6b34bb840d9211dc1a1f94e049a79de4,2018-03-04 11:52:08,1,98a8c2fa16d7239c606640f5555768e4,129.0,b99dae7f63aa2c42ab1020da0a6181b5,1,-22.74154840785273,-43.486849582856884,ferramentas_jardim,1
490759be2844c3b899a2fb95e6146bd8,dianopolis,TO,9b9e08cb1a66ae45d2a91815cd8f4426,2017-11-18 11:10:00,1,98a8c2fa16d7239c606640f5555768e4,110.0,0967a419009e13bb0311676a3ced2cde,5,-11.626275671911747,-46.82772412393983,ferramentas_jardim,2
490759be2844c3b899a2fb95e6146bd8,dianopolis,TO,9b9e08cb1a66ae45d2a91815cd8f4426,2017-11-18 11:10:00,2,98a8c2fa16d7239c606640f5555768e4,110.0,0967a419009e13bb0311676a3ced2cde,5,-11.626275671911747,-46.82772412393983,ferramentas_jardim,2
43082d4044011b783b48cf02f3c7880c,piuma,ES,5f303c97922b4eed59bca1e3b503f984,2017-10-16 13:56:29,1,98a8c2fa16d7239c606640f5555768e4,110.0,a6004d5afb38346ad2c0002b67d03001,1,-20.83847241862927,-40.72665755744997,ferramentas_jardim,2
43082d4044011b783b48cf02f3c7880c,piuma,ES,5f303c97922b4eed59bca1e3b503f984,2017-10-16 13:56:29,2,98a8c2fa16d7239c606640f5555768e4,110.0,a6004d5afb38346ad2c0002b67d03001,1,-20.83847241862927,-40.72665755744997,ferramentas_jardim,2
a7c125a0a07b75146167b7f04a7f8e98,rio de janeiro,RJ,72bab69c50432c6f94d8b50a5f84b69a,2018-08-13 23:45:05,1,811ea06b526cf16fd375cbabb9b8a99f,119.9,9aa20d5f7f7abeece2bf8ca9aff54c10,5,-22.94090553009624,-43.33213725380576,automotivo,1
8ef98506a1de4da22a3fa9dada1de99d,teresina,PI,f5a3eb7fb74526595623599e391ef6fd,2017-10-03 16:44:09,1,811ea06b526cf16fd375cbabb9b8a99f,119.9,c012f8e2855d575a3b8373a62d656e8f,5,-5.046619174705837,-42.73708516842461,automotivo,1
110b79f06a0f49a38da99084706a382d,engenheiro coelho,SP,ac6f2372fee2d8b5f63bd2387aa26a28,2018-08-25 20:24:40,1,811ea06b526cf16fd375cbabb9b8a99f,119.9,fb183488fd440be338f97253ab673a7a,3,-22.47888899999995,-47.16533599999997,automotivo,1
36bebcb0ffc46c9e5f46a67ebc358010,barcarena,PA,7bbaf5678aa799c667b939cb8a8b0294,2018-06-30 17:59:29,1,811ea06b526cf16fd375cbabb9b8a99f,129.9,a4e0dc5715e592783fa60f40796d4ad5,5,-1.5039597545007872,-48.62379336338097,automotivo,1
c5c61596a3b6bd0cee5766992c48a9a1,guarulhos,SP,ec28553b12bef4b538e5d7454464a1c6,2018-06-18 13:34:21,1,e64e4ef7b809314306d9c09635d8cd30,7.09,f566303c64a4d7d2dc7d18e04b38223a,5,-23.427223614479388,-46.53917266769278,pet_shop,1
9b8ce803689b3562defaad4613ef426f,sao paulo,SP,17825f24877a9289214c301ae0c9424b,2017-05-11 13:48:47,1,99a4788cb24856965c36a24e339b6058,89.9,906a95443d18edb22906a4d9e3278428,3,-23.565719357204667,-46.684737879825704,cama_mesa_banho,1
1667c9660e2d8494588daa01cf9e3f86,cacapava do sul,RS,60c5d3b8318f48d8a751a2d510c5a88c,2018-05-15 18:05:49,1,99a4788cb24856965c36a24e339b6058,84.0,6c7e11214841e61adc85d10798af2488,3,-30.50950880907649,-53.4903711400418,cama_mesa_banho,1
5dca924cc99eea2dc5ba40d11ec5dd0f,franca,SP,95261f608a64bbbe760a212b4d48a4ee,2018-06-15 20:07:13,1,99a4788cb24856965c36a24e339b6058,79.9,16a27e5ffd29a7cdf0e4984b0cab46b7,5,-20.500252601080785,-47.40036721880004,cama_mesa_banho,1
0f0242e95194275e6fcb0660f728b7c3,gravata,PE,bfaf2a2f0abc56602d3b0fcf99576126,2017-07-27 18:19:56,1,99a4788cb24856965c36a24e339b6058,89.9,b4e152d7ce77dc1f4015043ed3e4504d,5,-8.212257431626641,-35.56001291858985,cama_mesa_banho,1
0163a9517d96e283b1a883de0e71c826,campinas,SP,cb392984e12bc8b50d40dbf37f39e607,2017-06-25 16:44:15,1,99a4788cb24856965c36a24e339b6058,89.9,87e21aae14dbe4dd3d5916d23fe3b68f,5,-22.890684656673788,-47.07333374617697,cama_mesa_banho,1
22d2b3855c2c6c4be552728f1d2c3750,sao caetano do sul,SP,7ae9ea7b3699d86d4e21f6b323b72479,2017-05-29 13:00:22,1,99a4788cb24856965c36a24e339b6058,89.9,1e97444c4315434e4608be848eec5ae8,5,-23.620662,-46.562401514426725,cama_mesa_banho,1
473510bdc67d814c1feda19dc137023e,ferraz de vasconcelos,SP,e6657617ef1f4cc4cc2413cb0a6630ae,2018-01-30 16:16:45,1,99a4788cb24856965c36a24e339b6058,86.9,e85ba3049a1b89665036bca07198aaab,4,-23.546379573330523,-46.36546844132546,cama_mesa_banho,1
6da16227a15e57a2242748406e95844a,brasilia,DF,ac56c167333aca5b20ab180d2f00079e,2017-09-14 00:48:49,2,99a4788cb24856965c36a24e339b6058,89.9,9ab1d44a39be7b19485216b71ce8d47a,1,-15.773499224638364,-47.88549333288029,cama_mesa_banho,1
6da16227a15e57a2242748406e95844a,brasilia,DF,ac56c167333aca5b20ab180d2f00079e,2017-09-14 00:48:49,2,99a4788cb24856965c36a24e339b6058,89.9,9ab1d44a39be7b19485216b71ce8d47a,1,-15.773499224638364,-47.88549333288029,casa_conforto,1
6da16227a15e57a2242748406e95844a,brasilia,DF,ac56c167333aca5b20ab180d2f00079e,2017-09-14 00:48:49,1,35afc973633aaeb6b877ff57b2793310,89.9,9ab1d44a39be7b19485216b71ce8d47a,1,-15.773499224638364,-47.88549333288029,cama_mesa_banho,1
6da16227a15e57a2242748406e95844a,brasilia,DF,ac56c167333aca5b20ab180d2f00079e,2017-09-14 00:48:49,1,35afc973633aaeb6b877ff57b2793310,89.9,9ab1d44a39be7b19485216b71ce8d47a,1,-15.773499224638364,-47.88549333288029,casa_conforto,1
9d823bbc66d309224a2fc79014782e0d,guarulhos,SP,b88aaf0a038b725ea2225ef4ebbe343a,2018-03-19 18:53:59,1,99a4788cb24856965c36a24e339b6058,86.9,1273692bf30dde5f6d9d444883413ea8,3,-23.44424320399333,-46.44125009908246,cama_mesa_banho,1
32b1ae50ca71feac0a21fddfa9be7d49,monte alto,SP,ee35bdc3d877400fe1f81cf038e84840,2017-12-06 11:12:04,1,99a4788cb24856965c36a24e339b6058,89.9,c823d50e81656af09fbf91b8cc7e9646,5,-21.27815530998053,-48.4924471742399,cama_mesa_banho,1
0ae0de8878f54a5f877f99d19ce170da,tambau,SP,0bda83aa61608436c3403ca200bf12d5,2018-02-26 18:27:46,1,99a4788cb24856965c36a24e339b6058,86.9,2b5e2bd64a28032d70a818b52a62e6b1,1,-21.705597,-47.28778199999999,cama_mesa_banho,1
860ac166573be76ffb00c3e483892094,belo horizonte,MG,ab77be4cf9bf132ca4d82049e786e528,2017-09-16 21:10:54,1,99a4788cb24856965c36a24e339b6058,89.9,a4d132e0a2fec4dcfa55ab6ba84ca55d,4,-19.926212971694813,-43.99359108756993,cama_mesa_banho,1
b88e5fcb328ccbab9b165162de7073e3,itapira,SP,84bcc016602d9c00bc5178837cacf7e5,2017-06-23 10:32:48,1,99a4788cb24856965c36a24e339b6058,89.9,136e343f8705a41f43bec6f9f29d0c80,5,-22.44180838629541,-46.83272182997502,cama_mesa_banho,1
fe675b33a964a34734880d553ec3107e,osasco,SP,2442686c8ec7cde165c4b56581ccbae0,2017-04-06 16:03:32,1,99a4788cb24856965c36a24e339b6058,89.9,f864398a79a36a828a5decc251ca0cbb,1,-23.53314862003007,-46.76046091150642,cama_mesa_banho,1
95f0df1f2f6ec93cecb00ba84f424420,sao paulo,SP,47e6a0c0327dc37d68fe995d4d254885,2017-11-24 20:17:44,2,99a4788cb24856965c36a24e339b6058,89.9,f1e7a7193d6bf6c82fb05e7965d6f8eb,1,-23.543974719112533,-46.52829171911253,cama_mesa_banho,2
95f0df1f2f6ec93cecb00ba84f424420,sao paulo,SP,47e6a0c0327dc37d68fe995d4d254885,2017-11-24 20:17:44,1,3ab181ea2f9cc4be74bad27ef8a03492,259.9,f1e7a7193d6bf6c82fb05e7965d6f8eb,1,-23.543974719112533,-46.52829171911253,cama_mesa_banho,2
32bf3df42f4a846dc888178f9e276111,rio claro,SP,33c00e6b5e5d1f829753828969590a33,2017-07-16 09:17:43,1,99a4788cb24856965c36a24e339b6058,89.9,cf495005465270a485897288e6899038,5,-22.424713940619675,-47.57207118206479,cama_mesa_banho,1
d57b9dfc139d48fc3482411baea546ff,euclides da cunha paulista,SP,4f8d2bf1636e6c775fbfb0d824880893,2017-04-07 09:45:54,1,99a4788cb24856965c36a24e339b6058,89.9,b10bf5bceb43b520dd47eb94e0543618,4,-22.559438358138546,-52.59494336510839,cama_mesa_banho,1
7a64b719c194a2438f57a7b650ce371d,sorocaba,SP,74b688473b5a7667bdef6423f7508177,2017-05-04 11:11:00,1,99a4788cb24856965c36a24e339b6058,89.9,baccbe3ccc1d47fc942b39798c54a279,5,-23.46380261365341,-47.472621076605655,cama_mesa_banho,1
2e50f32ef890bff070fc82627c078120,riversul,SP,646410b7c77f0bae163c4d4cbe4d78de,2017-07-29 22:25:29,1,99a4788cb24856965c36a24e339b6058,89.9,7c9295939d16622941facdabd257de9d,4,-23.828584328801874,-49.431977852066794,cama_mesa_banho,1
b663fad935d54a48a276dad2482e5732,nova friburgo,RJ,3853bb442103dd1f77271b7750bd3202,2017-11-24 09:19:02,1,99a4788cb24856965c36a24e339b6058,89.9,ceed9811e4e43015f6758270c292ee1f,2,-22.324419495678292,-42.54638273971824,cama_mesa_banho,1
94e1e12a3d64d14c81f0058db88d2cdf,sao paulo,SP,a13f2110ae8bab95d529304f3b2dbbc1,2017-11-01 17:47:09,1,99a4788cb24856965c36a24e339b6058,89.9,a57e6f022e1156533fb1704f8193d501,1,-23.481821502856636,-46.67495921134445,cama_mesa_banho,1
810ca9554e64b702fcd371852a304794,mogi das cruzes,SP,f692b6bd0ae87642d9c7656e6199ed03,2017-03-08 08:35:41,1,99a4788cb24856965c36a24e339b6058,89.9,1a731917442d8f4ba7efa88e8bc2b48c,5,-23.482648481678748,-46.085237588708495,cama_mesa_banho,1
6e6dc62a9abb771cb96614a627d5cf4c,guarulhos,SP,7f9df823add120adeb81bec9c2c421a0,2017-09-22 15:26:28,1,99a4788cb24856965c36a24e339b6058,89.9,7e84c369a79782afa71cbc1d08eb241d,5,-23.44424320399333,-46.44125009908246,cama_mesa_banho,1
adfecba3f0ad769e4e73e28b71eaa2f5,goias,GO,b5247833e91b546f44ba90190eaee96f,2017-05-23 16:37:31,1,99a4788cb24856965c36a24e339b6058,89.9,445db5a4dd13d91c8b2f1c5afb157973,5,-15.94469157372235,-50.145188426277635,cama_mesa_banho,1
5d44b0796aed22e02ed55dc2d5ff238c,salvador,BA,0e3e9ace0a88a5472a5fa59b8909a8e4,2017-05-31 09:30:25,1,99a4788cb24856965c36a24e339b6058,89.9,e4384773e4958b2cecbd9350ef38144d,4,-12.998032392240315,-38.52045820577161,cama_mesa_banho,1
53421895d40d7df28d68c22ffa043355,guarulhos,SP,0c384d67524b5b92aa2fa6c8baa9a983,2017-06-05 19:20:11,1,99a4788cb24856965c36a24e339b6058,89.9,d334205a3b78fc22789af036ab7a8b05,1,-23.381121331669444,-46.44970737982569,cama_mesa_banho,1
fe01d69c1c9046eed7b45b06a443562a,porto alegre,RS,6bc8a792b7a78b27d3036a8d23b0ad38,2018-03-21 14:43:23,1,99a4788cb24856965c36a24e339b6058,86.9,c2dd2028732714abdd149d53733b8a9e,5,-30.075100459893818,-51.22015566584906,cama_mesa_banho,1
b92426d90dbe2a340cba7eb1ff4d500a,jau,SP,ea6ffb995c7f69175be7e15ed631b15d,2017-03-30 21:09:23,1,99a4788cb24856965c36a24e339b6058,89.9,b18ad1cbd04dd1161a6dedf9e1b6e9f7,5,-22.29470578332221,-48.55730830171036,cama_mesa_banho,1
2b01b5fb8141bbb9fcdc853a0e26da83,serra,ES,769214176682788a92801d8907fa1b40,2017-06-29 21:26:38,1,99a4788cb24856965c36a24e339b6058,89.9,b438431e04ae1ad0cb7ef798fb609742,5,-20.22937607207565,-40.289504643274455,cama_mesa_banho,1
ef553fe919dcf778989f099f9c02774e,petropolis,RJ,66b12481cc96a1cd3433f135e812ce3a,2017-03-31 12:20:44,1,99a4788cb24856965c36a24e339b6058,89.9,f56ae7c35115daa5a688e022226dada7,5,-22.23843304318707,-43.02582520622241,cama_mesa_banho,1
a6fb7a48402f0b53260a6b518b2119ee,botucatu,SP,fb14d0b924669f4fedd4109bbbfbb736,2017-04-24 17:08:07,1,99a4788cb24856965c36a24e339b6058,89.9,08017e1da2d288e235a66aa7662937d6,5,-22.86937007937564,-48.444702474609,cama_mesa_banho,1
36939b85495ade4c9abf1c6aaeb6169c,santa cruz do sul,RS,6139511ae07bf8fb7011174557ce663d,2017-08-19 11:14:26,1,99a4788cb24856965c36a24e339b6058,89.9,5f323ac027a67e7899bd9ba5a9103e06,5,-29.76529848764945,-52.44190941473362,cama_mesa_banho,1
f074190ffb3794d0aeef9a074077c0b4,araras,SP,2cbc5b81184dcc5a9a134f8eecdaa825,2017-04-17 14:32:21,1,99a4788cb24856965c36a24e339b6058,89.9,e5fe338f3e0489c6b2213846a3dace71,5,-22.373699424129963,-47.360439407843025,cama_mesa_banho,1
a4bea9d0081e8ca8680b0a399e9dcb97,sao paulo,SP,ca3462ab47c1f63763b386ff9376cc1a,2017-06-19 10:48:59,1,99a4788cb24856965c36a24e339b6058,89.9,1f7574bb1c1887ae89c5d7a8866fb550,3,-23.59567921510183,-46.532875478908174,cama_mesa_banho,1
6a3e325c41d9bf26e23a25e1158851fe,sao paulo,SP,a8eeef949a97362f253b5d6b9aa7b498,2018-02-05 18:03:36,2,99a4788cb24856965c36a24e339b6058,86.9,e964375e45b41eb96bcdeb65c3c2b341,1,-23.66405509740053,-46.64264835352704,cama_mesa_banho,2
6a3e325c41d9bf26e23a25e1158851fe,sao paulo,SP,a8eeef949a97362f253b5d6b9aa7b498,2018-02-05 18:03:36,1,f2e53dd1670f3c376518263b3f71424d,109.9,e964375e45b41eb96bcdeb65c3c2b341,1,-23.66405509740053,-46.64264835352704,cama_mesa_banho,2
98250a166957267b24eafb8fd85d8415,duque de caxias,RJ,028e1ce5e085cc7810f340572c316b35,2017-05-21 08:03:50,1,99a4788cb24856965c36a24e339b6058,89.9,57eddfa38a0c33e193f4750f882ab2bb,1,-22.749640927835888,-43.32586514639772,cama_mesa_banho,1
b383a778278d061c8b275a611c26ca8a,osasco,SP,1194afa31e54aeee123be8df42e3f573,2018-06-05 16:56:38,1,99a4788cb24856965c36a24e339b6058,79.9,3a184835f4e81aa3022a42465e9b6ad9,4,-23.531542542068077,-46.76564239159804,cama_mesa_banho,1
72aa84f482e9441a8c1599c07d734e45,caxias do sul,RS,ff00a56fe9475a175cd651d77c707a09,2017-11-24 00:08:10,1,99a4788cb24856965c36a24e339b6058,89.9,93f23682d0cc200fcbe5aced6c8305ef,5,-29.153178286727854,-51.183796610972,cama_mesa_banho,2
72aa84f482e9441a8c1599c07d734e45,caxias do sul,RS,ff00a56fe9475a175cd651d77c707a09,2017-11-24 00:08:10,1,99a4788cb24856965c36a24e339b6058,89.9,93f23682d0cc200fcbe5aced6c8305ef,5,-29.153178286727854,-51.183796610972,casa_conforto,1
72aa84f482e9441a8c1599c07d734e45,caxias do sul,RS,ff00a56fe9475a175cd651d77c707a09,2017-11-24 00:08:10,2,35afc973633aaeb6b877ff57b2793310,89.9,93f23682d0cc200fcbe5aced6c8305ef,5,-29.153178286727854,-51.183796610972,cama_mesa_banho,2
72aa84f482e9441a8c1599c07d734e45,caxias do sul,RS,ff00a56fe9475a175cd651d77c707a09,2017-11-24 00:08:10,2,35afc973633aaeb6b877ff57b2793310,89.9,93f23682d0cc200fcbe5aced6c8305ef,5,-29.153178286727854,-51.183796610972,casa_conforto,1
72aa84f482e9441a8c1599c07d734e45,caxias do sul,RS,ff00a56fe9475a175cd651d77c707a09,2017-11-24 00:08:10,3,056d012d264624accb7f73d31caee034,116.9,93f23682d0cc200fcbe5aced6c8305ef,5,-29.153178286727854,-51.183796610972,cama_mesa_banho,2
72aa84f482e9441a8c1599c07d734e45,caxias do sul,RS,ff00a56fe9475a175cd651d77c707a09,2017-11-24 00:08:10,3,056d012d264624accb7f73d31caee034,116.9,93f23682d0cc200fcbe5aced6c8305ef,5,-29.153178286727854,-51.183796610972,casa_conforto,1
e5cb26fca2d6d69837f8b62d69368ca0,belo horizonte,MG,e417eb578007d00c0b658bc321e625fb,2017-10-03 14:57:22,1,99a4788cb24856965c36a24e339b6058,89.9,6c301dd23bcc0a3b7dbbbb7b708ab102,5,-19.897627588954915,-43.98631361420168,cama_mesa_banho,1
f7060c3a8e6970cabb0af29d2864f4fd,belo horizonte,MG,8e350e1e4254bd7c68913b98bde7d3a7,2017-05-19 15:41:12,2,99a4788cb24856965c36a24e339b6058,89.9,8ee90ac383cf825bb7f4756130d4e74a,5,-19.893180458220375,-43.99829546350049,cama_mesa_banho,2
f7060c3a8e6970cabb0af29d2864f4fd,belo horizonte,MG,8e350e1e4254bd7c68913b98bde7d3a7,2017-05-19 15:41:12,2,99a4788cb24856965c36a24e339b6058,89.9,8ee90ac383cf825bb7f4756130d4e74a,5,-19.893180458220375,-43.99829546350049,casa_conforto,2
f7060c3a8e6970cabb0af29d2864f4fd,belo horizonte,MG,8e350e1e4254bd7c68913b98bde7d3a7,2017-05-19 15:41:12,2,99a4788cb24856965c36a24e339b6058,89.9,260b8badf10666253ac8a8eda99119f9,1,-19.893180458220375,-43.99829546350049,cama_mesa_banho,2
f7060c3a8e6970cabb0af29d2864f4fd,belo horizonte,MG,8e350e1e4254bd7c68913b98bde7d3a7,2017-05-19 15:41:12,2,99a4788cb24856965c36a24e339b6058,89.9,260b8badf10666253ac8a8eda99119f9,1,-19.893180458220375,-43.99829546350049,casa_conforto,2
f7060c3a8e6970cabb0af29d2864f4fd,belo horizonte,MG,8e350e1e4254bd7c68913b98bde7d3a7,2017-05-19 15:41:12,1,35afc973633aaeb6b877ff57b2793310,89.9,8ee90ac383cf825bb7f4756130d4e74a,5,-19.893180458220375,-43.99829546350049,cama_mesa_banho,2
f7060c3a8e6970cabb0af29d2864f4fd,belo horizonte,MG,8e350e1e4254bd7c68913b98bde7d3a7,2017-05-19 15:41:12,1,35afc973633aaeb6b877ff57b2793310,89.9,8ee90ac383cf825bb7f4756130d4e74a,5,-19.893180458220375,-43.99829546350049,casa_conforto,2
f7060c3a8e6970cabb0af29d2864f4fd,belo horizonte,MG,8e350e1e4254bd7c68913b98bde7d3a7,2017-05-19 15:41:12,1,35afc973633aaeb6b877ff57b2793310,89.9,260b8badf10666253ac8a8eda99119f9,1,-19.893180458220375,-43.99829546350049,cama_mesa_banho,2
f7060c3a8e6970cabb0af29d2864f4fd,belo horizonte,MG,8e350e1e4254bd7c68913b98bde7d3a7,2017-05-19 15:41:12,1,35afc973633aaeb6b877ff57b2793310,89.9,260b8badf10666253ac8a8eda99119f9,1,-19.893180458220375,-43.99829546350049,casa_conforto,2
10dd16991df7b09028004ea139cf0111,vilhena,RO,4c530bbcde8e6cf59b58cfc811436362,2018-01-11 00:08:09,1,99a4788cb24856965c36a24e339b6058,86.9,b684b43273105c6541294775b90b23fe,5,-12.74275808092184,-60.13216763884049,cama_mesa_banho,1
77d26bcf98f1185febc59b7a80a13a2d,sao paulo,SP,8784fd2fe0b3a9135334c0e4cc81b1f0,2018-06-27 10:20:31,1,99a4788cb24856965c36a24e339b6058,79.9,f2a5233ca6b6c1194aa263002c2cbb0c,1,-23.49187742806736,-46.703394,cama_mesa_banho,1
d25c28e2e418a2f688e8e17130b29b49,sao paulo,SP,3cdd33ec05cf28374828827789437fc3,2018-05-27 03:04:57,1,99a4788cb24856965c36a24e339b6058,79.9,ae295962d85fa5ac42828856e8a1a378,5,-23.65139518789316,-46.60625959380235,cama_mesa_banho,1
31f3b17dcd0402e09a9e1841d4b6a25f,campinas,SP,9955a2f7fc38c1b21be304e49f22e58b,2018-06-14 20:06:06,1,99a4788cb24856965c36a24e339b6058,79.9,fcb4b90f0c5824d59c8b7fdd3014644a,4,-22.974432067138466,-47.076152791033145,cama_mesa_banho,1
5a99f3ed7b721d9aa04b6f73e0abdfc7,sao paulo,SP,609a92d3db448bbe4e37ebbe28b72b16,2018-03-09 09:56:28,1,99a4788cb24856965c36a24e339b6058,86.9,b484cf85dc5199230548353cab56f022,5,-23.546690486964888,-46.6354469588072,cama_mesa_banho,1
1ff886d030252e3a0b3a86d4cbfb3503,sao paulo,SP,1873fcb129d137537b45d35990b5d734,2017-05-01 20:29:52,1,99a4788cb24856965c36a24e339b6058,89.9,dacab3d691883f2378c260e7a6031eb8,4,-23.54706573951133,-46.39109150164617,cama_mesa_banho,1
a7795c853b5a40237ab7e5088e984d9c,ribeirao preto,SP,82c6decae6063a55c184345746b1a269,2018-06-22 16:25:58,1,99a4788cb24856965c36a24e339b6058,79.9,c2734657de8eb754b4bb5f6174b446b8,3,-21.1199373075192,-47.789122028449405,cama_mesa_banho,1
f0a44676cb97b8d7b986aaea97a53897,araruama,RJ,42ff676d61e2f5f1b7dfc8404dc3160d,2017-12-06 15:27:03,1,99a4788cb24856965c36a24e339b6058,89.9,77ec711c813414ccfe9f679c8dd21da8,5,-22.877452114584212,-42.37846052184058,cama_mesa_banho,2
f0a44676cb97b8d7b986aaea97a53897,araruama,RJ,42ff676d61e2f5f1b7dfc8404dc3160d,2017-12-06 15:27:03,2,99a4788cb24856965c36a24e339b6058,89.9,77ec711c813414ccfe9f679c8dd21da8,5,-22.877452114584212,-42.37846052184058,cama_mesa_banho,2
180b596cd1cad920ac7b0013be409dbd,sao paulo,SP,3ec7827aef6348ae5387e7dd08a53de2,2017-07-07 23:06:32,1,99a4788cb24856965c36a24e339b6058,89.9,c393387222215cee812699bbf587ad5f,5,-23.64168039494491,-46.78608987621901,cama_mesa_banho,1
99b27fd81ccca7419e44f9a0563af9e7,contagem,MG,80509330a373b52445d3c8622c3fb9b6,2017-09-01 08:56:21,1,99a4788cb24856965c36a24e339b6058,89.9,158ef80f2a283256124ea7602c1b88c7,5,-19.894287603778025,-44.09378248782011,cama_mesa_banho,1
7d622173e13aab026b87c0cb81c16ab6,belo horizonte,MG,e3f172aaf1f60065be92d36fc71fab65,2017-07-29 15:52:10,1,99a4788cb24856965c36a24e339b6058,89.9,e5ab93f300922c62bf845ce285c6d606,5,-19.80582434165277,-43.95651834332621,cama_mesa_banho,1
5e5e6470cb171508e864b8fc75379c73,capelinha,MG,4e4bcd8837ffdbe350288d7fa0948c01,2017-09-13 21:37:44,1,99a4788cb24856965c36a24e339b6058,89.9,e6d88085552942976649fdd9ec41761a,5,-17.69600201862051,-42.50892913420776,cama_mesa_banho,1
3bd4f41537ca88b0dafb14f5760a5f29,colatina,ES,82bc67125dc0c2f0f348a1ec55ade2d8,2017-08-08 14:44:04,1,99a4788cb24856965c36a24e339b6058,89.9,4fae3ca9c917e73ac880d281c3451348,1,-19.533054300216715,-40.62186318977608,cama_mesa_banho,1
28b19e4aa3b8984663064c407ca727ff,sao paulo,SP,56c68bdc0271f13c3037a5bb26d520ad,2017-06-22 22:44:21,1,99a4788cb24856965c36a24e339b6058,89.9,b542eace371584a0ff04289f0be9d9f8,5,-23.48543370024241,-46.6289059196434,cama_mesa_banho,1
aa33d697a2f5ee04aae5e9a8227e913e,marica,RJ,c679e1baef76a7cf123dc697fe11c7ad,2017-08-19 20:44:22,1,99a4788cb24856965c36a24e339b6058,89.9,d51ed05f67b66d49ec9c0d2781068366,3,-22.92345999767181,-42.81681070773424,cama_mesa_banho,1
8a2ef78157619b780f710183a85346ed,uberaba,MG,48deb2ad89d3685d28a6afd89dea6733,2018-01-04 16:55:54,1,99a4788cb24856965c36a24e339b6058,86.9,3488cfefdf2af5c7657e8561ba5ea9ac,5,-19.775171205009347,-47.943312705009355,cama_mesa_banho,1
